{"type":"FeatureCollection", "features": [
{"type":"Feature","geometry":{"type":"Point","coordinates":[-149.82185,61.18903]},"properties":{"type":"HELIPORT_HOSPITAL","name":"Providence Hospital (ANCHORAGE, AK)","identifier":"FAA-HELIPORT:AK38","authority":"FAA Air Traffic Organization"}},
{"type":"Feature","geometry":{"type":"Point","coordinates":[-149.82661,61.2127]},"properties":{"type":"HELIPORT_HOSPITAL","name":"Alaska Rgnl Hospital (ANCHORAGE, AK)","identifier":"FAA-HELIPORT:2OK","authority":"FAA Air Traffic Organization"}},
{"type":"Feature","geometry":{"type":"Point","coordinates":[-149.7493,61.23538]},"properties":{"type":"HELIPORT_HOSPITAL","name":"Elmendorf Hospital (ANCHORAGE, AK)","identifier":"FAA-HELIPORT:AK91","authority":"FAA Air Traffic Organization"}},
{"type":"Feature","geometry":{"type":"Point","coordinates":[-168.95379,65.75835]},"properties":{"type":"HELIPORT_PUBLIC","name":"Diomede (DIOMEDE, AK)","identifier":"FAA-HELIPORT:DM2","authority":"FAA Air Traffic Organization"}},
{"type":"Feature","geometry":{"type":"Point","coordinates":[-151.55002,59.65226]},"properties":{"type":"HELIPORT_HOSPITAL","name":"South Peninsula Hospital (HOMER, AK)","identifier":"FAA-HELIPORT:4AA4","authority":"FAA Air Traffic Organization"}},
{"type":"Feature","geometry":{"type":"Point","coordinates":[-134.46573,58.32871]},"properties":{"type":"HELIPORT_HOSPITAL","name":"Barlett Rgnl Hospital (JUNEAU, AK)","identifier":"FAA-HELIPORT:AA44","authority":"FAA Air Traffic Organization"}},
{"type":"Feature","geometry":{"type":"Point","coordinates":[-158.53249,59.00175]},"properties":{"type":"HELIPORT_HOSPITAL","name":"Ans Hospital (KANAKANAK, AK)","identifier":"FAA-HELIPORT:5Z4","authority":"FAA Air Traffic Organization"}},
{"type":"Feature","geometry":{"type":"Point","coordinates":[-146.34541,61.13661]},"properties":{"type":"HELIPORT_HOSPITAL","name":"Valdez Hospital (VALDEZ, AK)","identifier":"FAA-HELIPORT:1AK7","authority":"FAA Air Traffic Organization"}},
{"type":"Feature","geometry":{"type":"Point","coordinates":[-151.07896,60.49265]},"properties":{"type":"HELIPORT_HOSPITAL","name":"Soldotna Hospital (SOLDOTNA, AK)","identifier":"FAA-HELIPORT:SD1","authority":"FAA Air Traffic Organization"}},
{"type":"Feature","geometry":{"type":"Point","coordinates":[-86.80527,33.50428]},"properties":{"type":"HELIPORT_HOSPITAL","name":"The Childrens Hospital (BIRMINGHAM, AL)","identifier":"FAA-HELIPORT:AL91","authority":"FAA Air Traffic Organization"}},
{"type":"Feature","geometry":{"type":"Point","coordinates":[-86.80278,33.50587]},"properties":{"type":"HELIPORT_HOSPITAL","name":"University of Alabama Hospital (BIRMINGHAM, AL)","identifier":"FAA-HELIPORT:AL38","authority":"FAA Air Traffic Organization"}},
{"type":"Feature","geometry":{"type":"Point","coordinates":[-85.45479,31.23737]},"properties":{"type":"HELIPORT_HOSPITAL","name":"Flowers Hospital (DOTHAN, AL)","identifier":"FAA-HELIPORT:AL59","authority":"FAA Air Traffic Organization"}},
{"type":"Feature","geometry":{"type":"Point","coordinates":[-86.94022,31.43011]},"properties":{"type":"HELIPORT_HOSPITAL","name":"Hospital Pad (EVERGREEN, AL)","identifier":"FAA-HELIPORT:0AL3","authority":"FAA Air Traffic Organization"}},
{"type":"Feature","geometry":{"type":"Point","coordinates":[-87.68512,30.42668]},"properties":{"type":"HELIPORT_HOSPITAL","name":"Foley Hospital (FOLEY, AL)","identifier":"FAA-HELIPORT:3AL4","authority":"FAA Air Traffic Organization"}},
{"type":"Feature","geometry":{"type":"Point","coordinates":[-85.82482,33.27722]},"properties":{"type":"HELIPORT_HOSPITAL","name":"Clay County Hospital (ASHLAND, AL)","identifier":"FAA-HELIPORT:0AL2","authority":"FAA Air Traffic Organization"}},
{"type":"Feature","geometry":{"type":"Point","coordinates":[-86.98061,34.80282]},"properties":{"type":"HELIPORT_HOSPITAL","name":"Athens-Limestone Hospital Helipad (ATHENS, AL)","identifier":"FAA-HELIPORT:5AL9","authority":"FAA Air Traffic Organization"}},
{"type":"Feature","geometry":{"type":"Point","coordinates":[-87.07347,31.12568]},"properties":{"type":"HELIPORT_HOSPITAL","name":"D W McMillian Meml Hospital (BREWTON, AL)","identifier":"FAA-HELIPORT:0AL6","authority":"FAA Air Traffic Organization"}},
{"type":"Feature","geometry":{"type":"Point","coordinates":[-85.74152,32.8185]},"properties":{"type":"HELIPORT_HOSPITAL","name":"Lake Martin Community Hospital (DADEVILLE, AL)","identifier":"FAA-HELIPORT:5AL6","authority":"FAA Air Traffic Organization"}},
{"type":"Feature","geometry":{"type":"Point","coordinates":[-86.97213,34.5921]},"properties":{"type":"HELIPORT_HOSPITAL","name":"Decatur Morgan Hospital (DECATUR, AL)","identifier":"FAA-HELIPORT:1AL1","authority":"FAA Air Traffic Organization"}},
{"type":"Feature","geometry":{"type":"Point","coordinates":[-87.83639,32.50556]},"properties":{"type":"HELIPORT_HOSPITAL","name":"Whitfield Rgnl Hospital (DEMOPOLIS, AL)","identifier":"FAA-HELIPORT:AL14","authority":"FAA Air Traffic Organization"}},
{"type":"Feature","geometry":{"type":"Point","coordinates":[-85.892,31.04977]},"properties":{"type":"HELIPORT_HOSPITAL","name":"Wiregrass Hospital (GENEVA, AL)","identifier":"FAA-HELIPORT:8AL9","authority":"FAA Air Traffic Organization"}},
{"type":"Feature","geometry":{"type":"Point","coordinates":[-86.58067,34.72113]},"properties":{"type":"HELIPORT_HOSPITAL","name":"The Huntsville Hospital (HUNTSVILLE, AL)","identifier":"FAA-HELIPORT:AL36","authority":"FAA Air Traffic Organization"}},
{"type":"Feature","geometry":{"type":"Point","coordinates":[-88.09847,30.70799]},"properties":{"type":"HELIPORT_HOSPITAL","name":"Usa Health System-University Hospital (MOBILE, AL)","identifier":"FAA-HELIPORT:AL52","authority":"FAA Air Traffic Organization"}},
{"type":"Feature","geometry":{"type":"Point","coordinates":[-88.20001,30.67936]},"properties":{"type":"HELIPORT_HOSPITAL","name":"Usa Health Providence Hospital (MOBILE, AL)","identifier":"FAA-HELIPORT:AL82","authority":"FAA Air Traffic Organization"}},
{"type":"Feature","geometry":{"type":"Point","coordinates":[-87.67778,34.74729]},"properties":{"type":"HELIPORT_HOSPITAL","name":"Shoals Hospital (MUSCLE SHOALS, AL)","identifier":"FAA-HELIPORT:AL53","authority":"FAA Air Traffic Organization"}},
{"type":"Feature","geometry":{"type":"Point","coordinates":[-92.58604,34.57425]},"properties":{"type":"HELIPORT_HOSPITAL","name":"Saline Meml Hospital (BENTON, AR)","identifier":"FAA-HELIPORT:04AR","authority":"FAA Air Traffic Organization"}},
{"type":"Feature","geometry":{"type":"Point","coordinates":[-87.32084,31.49886]},"properties":{"type":"HELIPORT_HOSPITAL","name":"Monroe County Hospital (MONROEVILLE, AL)","identifier":"FAA-HELIPORT:1AL6","authority":"FAA Air Traffic Organization"}},
{"type":"Feature","geometry":{"type":"Point","coordinates":[-87.28488,34.48408]},"properties":{"type":"HELIPORT_HOSPITAL","name":"Lawrence County Hospital (MOULTON, AL)","identifier":"FAA-HELIPORT:AL86","authority":"FAA Air Traffic Organization"}},
{"type":"Feature","geometry":{"type":"Point","coordinates":[-85.91172,32.53346]},"properties":{"type":"HELIPORT_HOSPITAL","name":"Community Hospital (TALLASSEE, AL)","identifier":"FAA-HELIPORT:AL83","authority":"FAA Air Traffic Organization"}},
{"type":"Feature","geometry":{"type":"Point","coordinates":[-93.55091,36.35925]},"properties":{"type":"HELIPORT_HOSPITAL","name":"Mercy Hospital Berryville (BERRYVILLE, AR)","identifier":"FAA-HELIPORT:AR41","authority":"FAA Air Traffic Organization"}},
{"type":"Feature","geometry":{"type":"Point","coordinates":[-92.45181,35.55998]},"properties":{"type":"HELIPORT_HOSPITAL","name":"Van Buren County Meml Hospital (CLINTON, AR)","identifier":"FAA-HELIPORT:31AR","authority":"FAA Air Traffic Organization"}},
{"type":"Feature","geometry":{"type":"Point","coordinates":[-91.93347,33.14179]},"properties":{"type":"HELIPORT_HOSPITAL","name":"Ashley County Hospital (CROSSETT, AR)","identifier":"FAA-HELIPORT:AR07","authority":"FAA Air Traffic Organization"}},
{"type":"Feature","geometry":{"type":"Point","coordinates":[-92.6704,33.22163]},"properties":{"type":"HELIPORT_HOSPITAL","name":"South Arkansas Rgnl Hospital (EL DORADO, AR)","identifier":"FAA-HELIPORT:AR48","authority":"FAA Air Traffic Organization"}},
{"type":"Feature","geometry":{"type":"Point","coordinates":[-93.74368,36.40014]},"properties":{"type":"HELIPORT_HOSPITAL","name":"Eureka Springs Hospital (EUREKA SPRINGS, AR)","identifier":"FAA-HELIPORT:0AR9","authority":"FAA Air Traffic Organization"}},
{"type":"Feature","geometry":{"type":"Point","coordinates":[-94.35206,35.35376]},"properties":{"type":"HELIPORT_HOSPITAL","name":"Mercy Hospital Fort Smith (FORT SMITH, AR)","identifier":"FAA-HELIPORT:AR21","authority":"FAA Air Traffic Organization"}},
{"type":"Feature","geometry":{"type":"Point","coordinates":[-94.46006,36.40928]},"properties":{"type":"HELIPORT_HOSPITAL","name":"Ozarks Community Hospital (GRAVETTE, AR)","identifier":"FAA-HELIPORT:0AR4","authority":"FAA Air Traffic Organization"}},
{"type":"Feature","geometry":{"type":"Point","coordinates":[-90.62622,34.50983]},"properties":{"type":"HELIPORT_HOSPITAL","name":"Helena Hospital (HELENA, AR)","identifier":"FAA-HELIPORT:AR77","authority":"FAA Air Traffic Organization"}},
{"type":"Feature","geometry":{"type":"Point","coordinates":[-91.28917,33.30534]},"properties":{"type":"HELIPORT_HOSPITAL","name":"Chicot Meml Hospital (LAKE VILLAGE, AR)","identifier":"FAA-HELIPORT:AR61","authority":"FAA Air Traffic Organization"}},
{"type":"Feature","geometry":{"type":"Point","coordinates":[-92.40435,34.65716]},"properties":{"type":"HELIPORT_HOSPITAL","name":"Southwest Hospital (LITTLE ROCK, AR)","identifier":"FAA-HELIPORT:5AR6","authority":"FAA Air Traffic Organization"}},
{"type":"Feature","geometry":{"type":"Point","coordinates":[-92.39275,34.73953]},"properties":{"type":"HELIPORT_HOSPITAL","name":"Arkansas Heart Hospital (LITTLE ROCK, AR)","identifier":"FAA-HELIPORT:6AR7","authority":"FAA Air Traffic Organization"}},
{"type":"Feature","geometry":{"type":"Point","coordinates":[-91.39304,33.618]},"properties":{"type":"HELIPORT_HOSPITAL","name":"Mc Gehee Desha County Hospital (MC GEHEE, AR)","identifier":"FAA-HELIPORT:AR63","authority":"FAA Air Traffic Organization"}},
{"type":"Feature","geometry":{"type":"Point","coordinates":[-93.88023,33.94885]},"properties":{"type":"HELIPORT_HOSPITAL","name":"Howard Meml Hospital (NASHVILLE, AR)","identifier":"FAA-HELIPORT:0AR8","authority":"FAA Air Traffic Organization"}},
{"type":"Feature","geometry":{"type":"Point","coordinates":[-91.33863,34.27881]},"properties":{"type":"HELIPORT_HOSPITAL","name":"De Witt Hospital (DE WITT, AR)","identifier":"FAA-HELIPORT:AR59","authority":"FAA Air Traffic Organization"}},
{"type":"Feature","geometry":{"type":"Point","coordinates":[-93.06577,34.46886]},"properties":{"type":"HELIPORT_HOSPITAL","name":"Chi St. Vincent Hospital Hot Springs (HOT SPRINGS, AR)","identifier":"FAA-HELIPORT:11AR","authority":"FAA Air Traffic Organization"}},
{"type":"Feature","geometry":{"type":"Point","coordinates":[-94.18528,36.13501]},"properties":{"type":"HELIPORT_HOSPITAL","name":"Willow Creek Women's Hospital (JOHNSON, AR)","identifier":"FAA-HELIPORT:22AR","authority":"FAA Air Traffic Organization"}},
{"type":"Feature","geometry":{"type":"Point","coordinates":[-90.66647,35.80761]},"properties":{"type":"HELIPORT_HOSPITAL","name":"Nea Baptist Hospital (JONESBORO, AR)","identifier":"FAA-HELIPORT:AR60","authority":"FAA Air Traffic Organization"}},
{"type":"Feature","geometry":{"type":"Point","coordinates":[-92.29367,34.74292]},"properties":{"type":"HELIPORT_HOSPITAL","name":"Arkansas Children's Hospital (LITTLE ROCK, AR)","identifier":"FAA-HELIPORT:AR62","authority":"FAA Air Traffic Organization"}},
{"type":"Feature","geometry":{"type":"Point","coordinates":[-91.8173,33.61177]},"properties":{"type":"HELIPORT_HOSPITAL","name":"Drew Meml Hospital (MONTICELLO, AR)","identifier":"FAA-HELIPORT:AR85","authority":"FAA Air Traffic Organization"}},
{"type":"Feature","geometry":{"type":"Point","coordinates":[-92.39891,36.34174]},"properties":{"type":"HELIPORT_HOSPITAL","name":"Baxter County Rgnl Hospital (MOUNTAIN HOME, AR)","identifier":"FAA-HELIPORT:5AR9","authority":"FAA Air Traffic Organization"}},
{"type":"Feature","geometry":{"type":"Point","coordinates":[-90.49817,36.05091]},"properties":{"type":"HELIPORT_HOSPITAL","name":"Arkansas Methodist Hospital (PARAGOULD, AR)","identifier":"FAA-HELIPORT:AR95","authority":"FAA Air Traffic Organization"}},
{"type":"Feature","geometry":{"type":"Point","coordinates":[-90.20378,36.38973]},"properties":{"type":"HELIPORT_HOSPITAL","name":"Piggott Community Hospital (PIGGOTT, AR)","identifier":"FAA-HELIPORT:AR73","authority":"FAA Air Traffic Organization"}},
{"type":"Feature","geometry":{"type":"Point","coordinates":[-91.81101,36.38276]},"properties":{"type":"HELIPORT_HOSPITAL","name":"Fulton County Hospital (SALEM, AR)","identifier":"FAA-HELIPORT:AR68","authority":"FAA Air Traffic Organization"}},
{"type":"Feature","geometry":{"type":"Point","coordinates":[-94.50676,36.18938]},"properties":{"type":"HELIPORT_HOSPITAL","name":"Siloam Springs Meml Hospital (SILOAM SPRINGS, AR)","identifier":"FAA-HELIPORT:AR69","authority":"FAA Air Traffic Organization"}},
{"type":"Feature","geometry":{"type":"Point","coordinates":[-91.55973,34.51778]},"properties":{"type":"HELIPORT_HOSPITAL","name":"Stuttgart Meml Hospital (STUTTGART, AR)","identifier":"FAA-HELIPORT:32AR","authority":"FAA Air Traffic Organization"}},
{"type":"Feature","geometry":{"type":"Point","coordinates":[-90.786,35.22013]},"properties":{"type":"HELIPORT_HOSPITAL","name":"Cross Ridge Community Hospital (WYNNE, AR)","identifier":"FAA-HELIPORT:AR74","authority":"FAA Air Traffic Organization"}},
{"type":"Feature","geometry":{"type":"Point","coordinates":[-114.33913,34.48113]},"properties":{"type":"HELIPORT_HOSPITAL","name":"Havasu Samaritan Rgnl Hospital (LAKE HAVASU CITY, AZ)","identifier":"FAA-HELIPORT:AZ80","authority":"FAA Air Traffic Organization"}},
{"type":"Feature","geometry":{"type":"Point","coordinates":[-112.10172,33.52508]},"properties":{"type":"HELIPORT_HOSPITAL","name":"Phoenix Baptist Hospital (PHOENIX, AZ)","identifier":"FAA-HELIPORT:AZ24","authority":"FAA Air Traffic Organization"}},
{"type":"Feature","geometry":{"type":"Point","coordinates":[-112.06016,33.46505]},"properties":{"type":"HELIPORT_HOSPITAL","name":"Good Samaritan Hospital (PHOENIX, AZ)","identifier":"FAA-HELIPORT:67AZ","authority":"FAA Air Traffic Organization"}},
{"type":"Feature","geometry":{"type":"Point","coordinates":[-109.88248,31.41769]},"properties":{"type":"HELIPORT_HOSPITAL","name":"Copper Queen Hospital (BISBEE, AZ)","identifier":"FAA-HELIPORT:6AZ6","authority":"FAA Air Traffic Organization"}},
{"type":"Feature","geometry":{"type":"Point","coordinates":[-114.28493,34.13704]},"properties":{"type":"HELIPORT_HOSPITAL","name":"Lapaz Rgnl Hospital (PARKER, AZ)","identifier":"FAA-HELIPORT:AZ47","authority":"FAA Air Traffic Organization"}},
{"type":"Feature","geometry":{"type":"Point","coordinates":[-112.07951,33.48289]},"properties":{"type":"HELIPORT_HOSPITAL","name":"St Joseph's Hospital (PHOENIX, AZ)","identifier":"FAA-HELIPORT:0AZ6","authority":"FAA Air Traffic Organization"}},
{"type":"Feature","geometry":{"type":"Point","coordinates":[-112.11533,33.66591]},"properties":{"type":"HELIPORT_HOSPITAL","name":"Hh Deer Valley Hospital (PHOENIX, AZ)","identifier":"FAA-HELIPORT:3AZ4","authority":"FAA Air Traffic Organization"}},
{"type":"Feature","geometry":{"type":"Point","coordinates":[-112.04015,33.48126]},"properties":{"type":"HELIPORT_HOSPITAL","name":"Arizona Heart Hospital (PHOENIX, AZ)","identifier":"FAA-HELIPORT:0AZ0","authority":"FAA Air Traffic Organization"}},
{"type":"Feature","geometry":{"type":"Point","coordinates":[-112.04151,33.47857]},"properties":{"type":"HELIPORT_HOSPITAL","name":"Phoenix Children's Hospital (PHOENIX, AZ)","identifier":"FAA-HELIPORT:AZ99","authority":"FAA Air Traffic Organization"}},
{"type":"Feature","geometry":{"type":"Point","coordinates":[-112.28273,33.60249]},"properties":{"type":"HELIPORT_HOSPITAL","name":"Banner Boswell Meml Hospital (SUN CITY, AZ)","identifier":"FAA-HELIPORT:AZ08","authority":"FAA Air Traffic Organization"}},
{"type":"Feature","geometry":{"type":"Point","coordinates":[-110.94642,32.24199]},"properties":{"type":"HELIPORT_HOSPITAL","name":"University Medical Center Hospital (TUCSON, AZ)","identifier":"FAA-HELIPORT:5AZ4","authority":"FAA Air Traffic Organization"}},
{"type":"Feature","geometry":{"type":"Point","coordinates":[-109.83791,32.26454]},"properties":{"type":"HELIPORT_HOSPITAL","name":"Northern Cochise Community Hospital (WILLCOX, AZ)","identifier":"FAA-HELIPORT:AZ16","authority":"FAA Air Traffic Organization"}},
{"type":"Feature","geometry":{"type":"Point","coordinates":[-119.02082,35.38323]},"properties":{"type":"HELIPORT_HOSPITAL","name":"San Joaquin Community Hospital (BAKERSFIELD, CA)","identifier":"FAA-HELIPORT:28CN","authority":"FAA Air Traffic Organization"}},
{"type":"Feature","geometry":{"type":"Point","coordinates":[-119.00635,35.39131]},"properties":{"type":"HELIPORT_HOSPITAL","name":"Meml Hospital (BAKERSFIELD, CA)","identifier":"FAA-HELIPORT:CL60","authority":"FAA Air Traffic Organization"}},
{"type":"Feature","geometry":{"type":"Point","coordinates":[-116.88791,34.24689]},"properties":{"type":"HELIPORT_HOSPITAL","name":"Bear Valley Hospital (BIG BEAR LAKE, CA)","identifier":"FAA-HELIPORT:CN45","authority":"FAA Air Traffic Organization"}},
{"type":"Feature","geometry":{"type":"Point","coordinates":[-111.94097,33.41311]},"properties":{"type":"HELIPORT_HOSPITAL","name":"Tempe St Lukes Hospital (TEMPE, AZ)","identifier":"FAA-HELIPORT:AZ73","authority":"FAA Air Traffic Organization"}},
{"type":"Feature","geometry":{"type":"Point","coordinates":[-117.26449,34.54323]},"properties":{"type":"HELIPORT_HOSPITAL","name":"St Mary Desert Valley Hospital (APPLE VALLEY, CA)","identifier":"FAA-HELIPORT:79CA","authority":"FAA Air Traffic Organization"}},
{"type":"Feature","geometry":{"type":"Point","coordinates":[-116.94287,33.93078]},"properties":{"type":"HELIPORT_HOSPITAL","name":"San Gorgonio Meml Hospital (BANNING, CA)","identifier":"FAA-HELIPORT:60CN","authority":"FAA Air Traffic Organization"}},
{"type":"Feature","geometry":{"type":"Point","coordinates":[-115.55309,32.95845]},"properties":{"type":"HELIPORT_HOSPITAL","name":"Pioneers Meml Hospital (BRAWLEY, CA)","identifier":"FAA-HELIPORT:9CA2","authority":"FAA Air Traffic Organization"}},
{"type":"Feature","geometry":{"type":"Point","coordinates":[-121.85029,39.74195]},"properties":{"type":"HELIPORT_HOSPITAL","name":"Enloe Hospital (CHICO, CA)","identifier":"FAA-HELIPORT:CL37","authority":"FAA Air Traffic Organization"}},
{"type":"Feature","geometry":{"type":"Point","coordinates":[-122.61936,38.93459]},"properties":{"type":"HELIPORT_HOSPITAL","name":"St Helena Hospital Clearlake (CLEARLAKE, CA)","identifier":"FAA-HELIPORT:CL53","authority":"FAA Air Traffic Organization"}},
{"type":"Feature","geometry":{"type":"Point","coordinates":[-117.93575,33.71396]},"properties":{"type":"HELIPORT_HOSPITAL","name":"Fountain Valley Rgnl Hospital (FOUNTAIN VALLEY, CA)","identifier":"FAA-HELIPORT:93CA","authority":"FAA Air Traffic Organization"}},
{"type":"Feature","geometry":{"type":"Point","coordinates":[-121.97815,37.55748]},"properties":{"type":"HELIPORT_HOSPITAL","name":"Washington Hospital Parking Structure (FREMONT, CA)","identifier":"FAA-HELIPORT:CL64","authority":"FAA Air Traffic Organization"}},
{"type":"Feature","geometry":{"type":"Point","coordinates":[-117.87071,34.13347]},"properties":{"type":"HELIPORT_HOSPITAL","name":"Foothill Presbyterian Hospital (GLENDORA, CA)","identifier":"FAA-HELIPORT:14CL","authority":"FAA Air Traffic Organization"}},
{"type":"Feature","geometry":{"type":"Point","coordinates":[-121.04767,39.22749]},"properties":{"type":"HELIPORT_HOSPITAL","name":"Sierra Nevada Meml Hospital (GRASS VALLEY, CA)","identifier":"FAA-HELIPORT:CA15","authority":"FAA Air Traffic Organization"}},
{"type":"Feature","geometry":{"type":"Point","coordinates":[-121.3144,38.66916]},"properties":{"type":"HELIPORT_HOSPITAL","name":"Mercy San Juan Hospital (CARMICHAEL, CA)","identifier":"FAA-HELIPORT:4CL5","authority":"FAA Air Traffic Organization"}},
{"type":"Feature","geometry":{"type":"Point","coordinates":[-117.43254,34.07255]},"properties":{"type":"HELIPORT_HOSPITAL","name":"Kaiser Hospital (FONTANA, CA)","identifier":"FAA-HELIPORT:94CA","authority":"FAA Air Traffic Organization"}},
{"type":"Feature","geometry":{"type":"Point","coordinates":[-123.79964,39.4319]},"properties":{"type":"HELIPORT_HOSPITAL","name":"Mendocino Coast District Hospital (FORT BRAGG, CA)","identifier":"FAA-HELIPORT:CN01","authority":"FAA Air Traffic Organization"}},
{"type":"Feature","geometry":{"type":"Point","coordinates":[-121.57112,37.0356]},"properties":{"type":"HELIPORT_HOSPITAL","name":"St Louise Rgnl Hospital (GILROY, CA)","identifier":"FAA-HELIPORT:5CL2","authority":"FAA Air Traffic Organization"}},
{"type":"Feature","geometry":{"type":"Point","coordinates":[-118.21731,34.20414]},"properties":{"type":"HELIPORT_HOSPITAL","name":"Verdugo Hills Hospital (GLENDALE, CA)","identifier":"FAA-HELIPORT:95CL","authority":"FAA Air Traffic Organization"}},
{"type":"Feature","geometry":{"type":"Point","coordinates":[-120.93721,40.14128]},"properties":{"type":"HELIPORT_HOSPITAL","name":"Plumas Hospital District (GREENVILLE, CA)","identifier":"FAA-HELIPORT:30CA","authority":"FAA Air Traffic Organization"}},
{"type":"Feature","geometry":{"type":"Point","coordinates":[-116.23676,33.70585]},"properties":{"type":"HELIPORT_HOSPITAL","name":"John F Kennedy Meml Hospital (INDIO, CA)","identifier":"FAA-HELIPORT:42CA","authority":"FAA Air Traffic Organization"}},
{"type":"Feature","geometry":{"type":"Point","coordinates":[-121.13256,36.20553]},"properties":{"type":"HELIPORT_HOSPITAL","name":"Mee Meml Hospital (KING CITY, CA)","identifier":"FAA-HELIPORT:09CA","authority":"FAA Air Traffic Organization"}},
{"type":"Feature","geometry":{"type":"Point","coordinates":[-122.90571,39.10538]},"properties":{"type":"HELIPORT_HOSPITAL","name":"Sutter Lakeside Hospital (LAKEPORT, CA)","identifier":"FAA-HELIPORT:CL69","authority":"FAA Air Traffic Organization"}},
{"type":"Feature","geometry":{"type":"Point","coordinates":[-117.00695,32.77946]},"properties":{"type":"HELIPORT_HOSPITAL","name":"Grossmont Hospital (LA MESA, CA)","identifier":"FAA-HELIPORT:03CA","authority":"FAA Air Traffic Organization"}},
{"type":"Feature","geometry":{"type":"Point","coordinates":[-121.28673,38.12242]},"properties":{"type":"HELIPORT_HOSPITAL","name":"Lodi Meml Hospital (LODI, CA)","identifier":"FAA-HELIPORT:8CL7","authority":"FAA Air Traffic Organization"}},
{"type":"Feature","geometry":{"type":"Point","coordinates":[-118.29091,34.09734]},"properties":{"type":"HELIPORT_HOSPITAL","name":"Childrens Hospital Los Angeles (LOS ANGELES, CA)","identifier":"FAA-HELIPORT:29CL","authority":"FAA Air Traffic Organization"}},
{"type":"Feature","geometry":{"type":"Point","coordinates":[-118.26498,34.05485]},"properties":{"type":"HELIPORT_HOSPITAL","name":"Good Samaritan Hospital (LOS ANGELES, CA)","identifier":"FAA-HELIPORT:0CL7","authority":"FAA Air Traffic Organization"}},
{"type":"Feature","geometry":{"type":"Point","coordinates":[-118.53263,34.22006]},"properties":{"type":"HELIPORT_HOSPITAL","name":"Northridge Hospital (LOS ANGELES, CA)","identifier":"FAA-HELIPORT:CA86","authority":"FAA Air Traffic Organization"}},
{"type":"Feature","geometry":{"type":"Point","coordinates":[-121.38651,36.83478]},"properties":{"type":"HELIPORT_HOSPITAL","name":"Hazel Hawkins Meml Hospital (HOLLISTER, CA)","identifier":"FAA-HELIPORT:9CN1","authority":"FAA Air Traffic Organization"}},
{"type":"Feature","geometry":{"type":"Point","coordinates":[-120.76399,38.35102]},"properties":{"type":"HELIPORT_HOSPITAL","name":"Sutter Amador Hospital (JACKSON, CA)","identifier":"FAA-HELIPORT:CL21","authority":"FAA Air Traffic Organization"}},
{"type":"Feature","geometry":{"type":"Point","coordinates":[-117.22551,32.88629]},"properties":{"type":"HELIPORT_HOSPITAL","name":"Scripps Meml Hospital La Jolla (LA JOLLA, CA)","identifier":"FAA-HELIPORT:CA24","authority":"FAA Air Traffic Organization"}},
{"type":"Feature","geometry":{"type":"Point","coordinates":[-117.16776,34.26549]},"properties":{"type":"HELIPORT_HOSPITAL","name":"Mountains Community Hospital (LAKE ARROWHEAD, CA)","identifier":"FAA-HELIPORT:47CA","authority":"FAA Air Traffic Organization"}},
{"type":"Feature","geometry":{"type":"Point","coordinates":[-118.2016,34.06162]},"properties":{"type":"HELIPORT_HOSPITAL","name":"Usc University Hospital (LOS ANGELES, CA)","identifier":"FAA-HELIPORT:CL00","authority":"FAA Air Traffic Organization"}},
{"type":"Feature","geometry":{"type":"Point","coordinates":[-118.28865,34.0973]},"properties":{"type":"HELIPORT_HOSPITAL","name":"Children's Hospital of Los Angeles Ii (LOS ANGELES, CA)","identifier":"FAA-HELIPORT:4CN7","authority":"FAA Air Traffic Organization"}},
{"type":"Feature","geometry":{"type":"Point","coordinates":[-119.80058,36.88244]},"properties":{"type":"HELIPORT_HOSPITAL","name":"Valley Children's Hospital (MADERA, CA)","identifier":"FAA-HELIPORT:9CL6","authority":"FAA Air Traffic Organization"}},
{"type":"Feature","geometry":{"type":"Point","coordinates":[-122.29719,38.32389]},"properties":{"type":"HELIPORT_HOSPITAL","name":"Queen of The Valley Hospital (NAPA, CA)","identifier":"FAA-HELIPORT:CN14","authority":"FAA Air Traffic Organization"}},
{"type":"Feature","geometry":{"type":"Point","coordinates":[-122.26682,37.83616]},"properties":{"type":"HELIPORT_HOSPITAL","name":"Ucsf Benioff Childrens Hospital Oakland (OAKLAND, CA)","identifier":"FAA-HELIPORT:7CL1","authority":"FAA Air Traffic Organization"}},
{"type":"Feature","geometry":{"type":"Point","coordinates":[-117.29121,33.18527]},"properties":{"type":"HELIPORT_HOSPITAL","name":"Tri-City Hospital (OCEANSIDE, CA)","identifier":"FAA-HELIPORT:36CL","authority":"FAA Air Traffic Organization"}},
{"type":"Feature","geometry":{"type":"Point","coordinates":[-117.86537,33.78146]},"properties":{"type":"HELIPORT_HOSPITAL","name":"Childrens Hospital of Orange County (ORANGE, CA)","identifier":"FAA-HELIPORT:4CA5","authority":"FAA Air Traffic Organization"}},
{"type":"Feature","geometry":{"type":"Point","coordinates":[-118.1521,34.13434]},"properties":{"type":"HELIPORT_HOSPITAL","name":"Huntington Meml Hospital (PASADENA, CA)","identifier":"FAA-HELIPORT:CL14","authority":"FAA Air Traffic Organization"}},
{"type":"Feature","geometry":{"type":"Point","coordinates":[-117.38171,33.97742]},"properties":{"type":"HELIPORT_HOSPITAL","name":"Riverside Community Hospital (RIVERSIDE, CA)","identifier":"FAA-HELIPORT:54CA","authority":"FAA Air Traffic Organization"}},
{"type":"Feature","geometry":{"type":"Point","coordinates":[-117.66616,33.5608]},"properties":{"type":"HELIPORT_HOSPITAL","name":"Mission Hospital Helistop (MISSION VIEJO, CA)","identifier":"FAA-HELIPORT:CA55","authority":"FAA Air Traffic Organization"}},
{"type":"Feature","geometry":{"type":"Point","coordinates":[-117.93079,33.62517]},"properties":{"type":"HELIPORT_HOSPITAL","name":"Hoag Meml Hospital Presbyterian (NEWPORT BEACH, CA)","identifier":"FAA-HELIPORT:14CA","authority":"FAA Air Traffic Organization"}},
{"type":"Feature","geometry":{"type":"Point","coordinates":[-117.05554,32.99606]},"properties":{"type":"HELIPORT_HOSPITAL","name":"Pomerado Hospital (POWAY, CA)","identifier":"FAA-HELIPORT:1CL5","authority":"FAA Air Traffic Organization"}},
{"type":"Feature","geometry":{"type":"Point","coordinates":[-120.96201,39.94026]},"properties":{"type":"HELIPORT_HOSPITAL","name":"Plumas District Hospital (QUINCY, CA)","identifier":"FAA-HELIPORT:CL94","authority":"FAA Air Traffic Organization"}},
{"type":"Feature","geometry":{"type":"Point","coordinates":[-117.67204,35.64039]},"properties":{"type":"HELIPORT_HOSPITAL","name":"Ridgecrest Rgnl Hospital Helistop 1 (RIDGECREST, CA)","identifier":"FAA-HELIPORT:CA77","authority":"FAA Air Traffic Organization"}},
{"type":"Feature","geometry":{"type":"Point","coordinates":[-117.15185,32.79869]},"properties":{"type":"HELIPORT_HOSPITAL","name":"Rady Childrens Hospital San Diego (SAN DIEGO, CA)","identifier":"FAA-HELIPORT:CN17","authority":"FAA Air Traffic Organization"}},
{"type":"Feature","geometry":{"type":"Point","coordinates":[-117.1606,32.75125]},"properties":{"type":"HELIPORT_HOSPITAL","name":"Scripps Mercy Hospital (SAN DIEGO, CA)","identifier":"FAA-HELIPORT:CL97","authority":"FAA Air Traffic Organization"}},
{"type":"Feature","geometry":{"type":"Point","coordinates":[-117.15348,32.79941]},"properties":{"type":"HELIPORT_HOSPITAL","name":"Sharp Mem Hospital (SAN DIEGO, CA)","identifier":"FAA-HELIPORT:CL36","authority":"FAA Air Traffic Organization"}},
{"type":"Feature","geometry":{"type":"Point","coordinates":[-119.99687,38.91128]},"properties":{"type":"HELIPORT_HOSPITAL","name":"Barton Meml Hospital (SOUTH LAKE TAHOE, CA)","identifier":"FAA-HELIPORT:CA43","authority":"FAA Air Traffic Organization"}},
{"type":"Feature","geometry":{"type":"Point","coordinates":[-121.2827,37.88786]},"properties":{"type":"HELIPORT_HOSPITAL","name":"San Joaquin General Hospital (STOCKTON, CA)","identifier":"FAA-HELIPORT:CL52","authority":"FAA Air Traffic Organization"}},
{"type":"Feature","geometry":{"type":"Point","coordinates":[-120.71903,35.55604]},"properties":{"type":"HELIPORT_HOSPITAL","name":"Twin Cities Community Hospital (TEMPLETON, CA)","identifier":"FAA-HELIPORT:18CA","authority":"FAA Air Traffic Organization"}},
{"type":"Feature","geometry":{"type":"Point","coordinates":[-117.23763,33.59134]},"properties":{"type":"HELIPORT_HOSPITAL","name":"Southwest Healthcare System Inland Valley Hospital (WILDOMAR, CA)","identifier":"FAA-HELIPORT:2CL8","authority":"FAA Air Traffic Organization"}},
{"type":"Feature","geometry":{"type":"Point","coordinates":[-119.72409,34.42982]},"properties":{"type":"HELIPORT_HOSPITAL","name":"Santa Barbara Cottage Hospital (SANTA BARBARA, CA)","identifier":"FAA-HELIPORT:3CN2","authority":"FAA Air Traffic Organization"}},
{"type":"Feature","geometry":{"type":"Point","coordinates":[-121.98248,36.99068]},"properties":{"type":"HELIPORT_HOSPITAL","name":"Dominican Hospital (SANTA CRUZ, CA)","identifier":"FAA-HELIPORT:CA37","authority":"FAA Air Traffic Organization"}},
{"type":"Feature","geometry":{"type":"Point","coordinates":[-122.70128,38.44359]},"properties":{"type":"HELIPORT_HOSPITAL","name":"Santa Rosa Meml Hospital (SANTA ROSA, CA)","identifier":"FAA-HELIPORT:CL51","authority":"FAA Air Traffic Organization"}},
{"type":"Feature","geometry":{"type":"Point","coordinates":[-118.44952,34.15993]},"properties":{"type":"HELIPORT_HOSPITAL","name":"Sherman Oaks Hospital (SHERMAN OAKS, CA)","identifier":"FAA-HELIPORT:CL80","authority":"FAA Air Traffic Organization"}},
{"type":"Feature","geometry":{"type":"Point","coordinates":[-120.20026,39.32412]},"properties":{"type":"HELIPORT_HOSPITAL","name":"Tahoe Forest Hospital (TRUCKEE, CA)","identifier":"FAA-HELIPORT:64CA","authority":"FAA Air Traffic Organization"}},
{"type":"Feature","geometry":{"type":"Point","coordinates":[-117.63617,34.10273]},"properties":{"type":"HELIPORT_HOSPITAL","name":"San Antonio Rgnl Hospital (UPLAND, CA)","identifier":"FAA-HELIPORT:99CA","authority":"FAA Air Traffic Organization"}},
{"type":"Feature","geometry":{"type":"Point","coordinates":[-121.95117,38.35533]},"properties":{"type":"HELIPORT_HOSPITAL","name":"Vaca Valley Hospital (VACAVILLE, CA)","identifier":"FAA-HELIPORT:CL96","authority":"FAA Air Traffic Organization"}},
{"type":"Feature","geometry":{"type":"Point","coordinates":[-118.26634,34.035]},"properties":{"type":"HELIPORT_HOSPITAL","name":"Maguire-California Hospital (VAN NUYS, CA)","identifier":"FAA-HELIPORT:CA23","authority":"FAA Air Traffic Organization"}},
{"type":"Feature","geometry":{"type":"Point","coordinates":[-119.25923,34.2747]},"properties":{"type":"HELIPORT_HOSPITAL","name":"Community Meml Hospital (VENTURA, CA)","identifier":"FAA-HELIPORT:CA72","authority":"FAA Air Traffic Organization"}},
{"type":"Feature","geometry":{"type":"Point","coordinates":[-121.79269,36.9252]},"properties":{"type":"HELIPORT_HOSPITAL","name":"Watsonville Community Hospital (WATSONVILLE, CA)","identifier":"FAA-HELIPORT:CL99","authority":"FAA Air Traffic Organization"}},
{"type":"Feature","geometry":{"type":"Point","coordinates":[-117.2851,33.03709]},"properties":{"type":"HELIPORT_HOSPITAL","name":"Scripps Meml Hospital (ENCINITAS, CA)","identifier":"FAA-HELIPORT:CA82","authority":"FAA Air Traffic Organization"}},
{"type":"Feature","geometry":{"type":"Point","coordinates":[-106.83905,39.18994]},"properties":{"type":"HELIPORT_HOSPITAL","name":"Aspen Valley Hospital (ASPEN, CO)","identifier":"FAA-HELIPORT:CO50","authority":"FAA Air Traffic Organization"}},
{"type":"Feature","geometry":{"type":"Point","coordinates":[-104.82671,39.72734]},"properties":{"type":"HELIPORT_HOSPITAL","name":"Aurora Presbyterian Hospital (AURORA, CO)","identifier":"FAA-HELIPORT:CO05","authority":"FAA Air Traffic Organization"}},
{"type":"Feature","geometry":{"type":"Point","coordinates":[-104.83569,39.74251]},"properties":{"type":"HELIPORT_HOSPITAL","name":"Children's Hospital Colorado (AURORA, CO)","identifier":"FAA-HELIPORT:2CD8","authority":"FAA Air Traffic Organization"}},
{"type":"Feature","geometry":{"type":"Point","coordinates":[-104.82223,38.866]},"properties":{"type":"HELIPORT_HOSPITAL","name":"Penrose Hospital (COLORADO SPRINGS, CO)","identifier":"FAA-HELIPORT:CO24","authority":"FAA Air Traffic Organization"}},
{"type":"Feature","geometry":{"type":"Point","coordinates":[-108.04814,38.74511]},"properties":{"type":"HELIPORT_HOSPITAL","name":"Delta County Meml Hospital (DELTA, CO)","identifier":"FAA-HELIPORT:0CD0","authority":"FAA Air Traffic Organization"}},
{"type":"Feature","geometry":{"type":"Point","coordinates":[-105.05436,40.5714]},"properties":{"type":"HELIPORT_HOSPITAL","name":"Poudre Valley Hospital (FORT COLLINS, CO)","identifier":"FAA-HELIPORT:CD07","authority":"FAA Air Traffic Organization"}},
{"type":"Feature","geometry":{"type":"Point","coordinates":[-106.07878,39.56936]},"properties":{"type":"HELIPORT_HOSPITAL","name":"Common Spirit St Anthony Summit Hospital (FRISCO, CO)","identifier":"FAA-HELIPORT:91CO","authority":"FAA Air Traffic Organization"}},
{"type":"Feature","geometry":{"type":"Point","coordinates":[-107.32246,39.53307]},"properties":{"type":"HELIPORT_HOSPITAL","name":"Valley View Hospital (GLENWOOD SPRINGS, CO)","identifier":"FAA-HELIPORT:60CO","authority":"FAA Air Traffic Organization"}},
{"type":"Feature","geometry":{"type":"Point","coordinates":[-103.64989,40.25622]},"properties":{"type":"HELIPORT_HOSPITAL","name":"East Morgan County Hospital (BRUSH, CO)","identifier":"FAA-HELIPORT:2CO8","authority":"FAA Air Traffic Organization"}},
{"type":"Feature","geometry":{"type":"Point","coordinates":[-107.57971,40.51924]},"properties":{"type":"HELIPORT_HOSPITAL","name":"The Meml Hospital (CRAIG, CO)","identifier":"FAA-HELIPORT:54CO","authority":"FAA Air Traffic Organization"}},
{"type":"Feature","geometry":{"type":"Point","coordinates":[-106.3629,37.67503]},"properties":{"type":"HELIPORT_HOSPITAL","name":"Rio Grande Hospital (DEL NORTE, CO)","identifier":"FAA-HELIPORT:1CD5","authority":"FAA Air Traffic Organization"}},
{"type":"Feature","geometry":{"type":"Point","coordinates":[-104.96762,39.74775]},"properties":{"type":"HELIPORT_HOSPITAL","name":"St Lukes Hospital (DENVER, CO)","identifier":"FAA-HELIPORT:CO34","authority":"FAA Air Traffic Organization"}},
{"type":"Feature","geometry":{"type":"Point","coordinates":[-104.97045,39.74626]},"properties":{"type":"HELIPORT_HOSPITAL","name":"St Joseph Hospital (DENVER, CO)","identifier":"FAA-HELIPORT:CO37","authority":"FAA Air Traffic Organization"}},
{"type":"Feature","geometry":{"type":"Point","coordinates":[-108.56279,39.08987]},"properties":{"type":"HELIPORT_HOSPITAL","name":"St Mary's Hospital & Medical Center (GRAND JUNCTION, CO)","identifier":"FAA-HELIPORT:29CO","authority":"FAA Air Traffic Organization"}},
{"type":"Feature","geometry":{"type":"Point","coordinates":[-106.92443,38.55193]},"properties":{"type":"HELIPORT_HOSPITAL","name":"Gunnison Valley Hospital (GUNNISON, CO)","identifier":"FAA-HELIPORT:CD12","authority":"FAA Air Traffic Organization"}},
{"type":"Feature","geometry":{"type":"Point","coordinates":[-106.30277,39.24497]},"properties":{"type":"HELIPORT_HOSPITAL","name":"St Vincent General Hospital (LEADVILLE, CO)","identifier":"FAA-HELIPORT:01CO","authority":"FAA Air Traffic Organization"}},
{"type":"Feature","geometry":{"type":"Point","coordinates":[-104.9869,39.57571]},"properties":{"type":"HELIPORT_HOSPITAL","name":"Arapahoe Medical Park/Littleton Hospital (LITTLETON, CO)","identifier":"FAA-HELIPORT:CO16","authority":"FAA Air Traffic Organization"}},
{"type":"Feature","geometry":{"type":"Point","coordinates":[-105.12475,40.18162]},"properties":{"type":"HELIPORT_HOSPITAL","name":"Longmont United Hospital (LONGMONT, CO)","identifier":"FAA-HELIPORT:0CO0","authority":"FAA Air Traffic Organization"}},
{"type":"Feature","geometry":{"type":"Point","coordinates":[-107.86839,38.48033]},"properties":{"type":"HELIPORT_HOSPITAL","name":"Montrose Meml Hospital (MONTROSE, CO)","identifier":"FAA-HELIPORT:CD47","authority":"FAA Air Traffic Organization"}},
{"type":"Feature","geometry":{"type":"Point","coordinates":[-104.76994,39.54756]},"properties":{"type":"HELIPORT_HOSPITAL","name":"Parker Adventist Hospital (PARKER, CO)","identifier":"FAA-HELIPORT:CD31","authority":"FAA Air Traffic Organization"}},
{"type":"Feature","geometry":{"type":"Point","coordinates":[-108.80702,40.07817]},"properties":{"type":"HELIPORT_HOSPITAL","name":"Rangely District Hospital (RANGELY, CO)","identifier":"FAA-HELIPORT:18CO","authority":"FAA Air Traffic Organization"}},
{"type":"Feature","geometry":{"type":"Point","coordinates":[-103.47449,39.13883]},"properties":{"type":"HELIPORT_HOSPITAL","name":"Lincoln Community Hospital (HUGO, CO)","identifier":"FAA-HELIPORT:CO78","authority":"FAA Air Traffic Organization"}},
{"type":"Feature","geometry":{"type":"Point","coordinates":[-105.12794,39.7159]},"properties":{"type":"HELIPORT_HOSPITAL","name":"St Anthony's Hospital (LAKEWOOD, CO)","identifier":"FAA-HELIPORT:42CO","authority":"FAA Air Traffic Organization"}},
{"type":"Feature","geometry":{"type":"Point","coordinates":[-104.62455,38.23364]},"properties":{"type":"HELIPORT_HOSPITAL","name":"St Mary-Corwin Hospital (PUEBLO, CO)","identifier":"FAA-HELIPORT:2CO7","authority":"FAA Air Traffic Organization"}},
{"type":"Feature","geometry":{"type":"Point","coordinates":[-106.00909,38.54385]},"properties":{"type":"HELIPORT_HOSPITAL","name":"Salida Hospital (SALIDA, CO)","identifier":"FAA-HELIPORT:6CO9","authority":"FAA Air Traffic Organization"}},
{"type":"Feature","geometry":{"type":"Point","coordinates":[-102.73762,40.12118]},"properties":{"type":"HELIPORT_HOSPITAL","name":"Yuma District Hospital (YUMA, CO)","identifier":"FAA-HELIPORT:8CD0","authority":"FAA Air Traffic Organization"}},
{"type":"Feature","geometry":{"type":"Point","coordinates":[-73.16675,41.18839]},"properties":{"type":"HELIPORT_HOSPITAL","name":"Bridgeport Hospital (BRIDGEPORT, CT)","identifier":"FAA-HELIPORT:0CT7","authority":"FAA Air Traffic Organization"}},
{"type":"Feature","geometry":{"type":"Point","coordinates":[-72.93623,41.67629]},"properties":{"type":"HELIPORT_HOSPITAL","name":"Bristol Hospital (BRISTOL, CT)","identifier":"FAA-HELIPORT:CT03","authority":"FAA Air Traffic Organization"}},
{"type":"Feature","geometry":{"type":"Point","coordinates":[-72.80036,41.548]},"properties":{"type":"HELIPORT_HOSPITAL","name":"Meriden-Wallingford Hospital (MERIDEN, CT)","identifier":"FAA-HELIPORT:CT95","authority":"FAA Air Traffic Organization"}},
{"type":"Feature","geometry":{"type":"Point","coordinates":[-72.64622,41.55487]},"properties":{"type":"HELIPORT_HOSPITAL","name":"Middlesex Hospital (MIDDLETOWN, CT)","identifier":"FAA-HELIPORT:CT98","authority":"FAA Air Traffic Organization"}},
{"type":"Feature","geometry":{"type":"Point","coordinates":[-72.09095,41.54236]},"properties":{"type":"HELIPORT_HOSPITAL","name":"Backus Hospital (NORWICH, CT)","identifier":"FAA-HELIPORT:CT93","authority":"FAA Air Traffic Organization"}},
{"type":"Feature","geometry":{"type":"Point","coordinates":[-73.48098,41.88123]},"properties":{"type":"HELIPORT_HOSPITAL","name":"Sharon Hospital (SHARON, CT)","identifier":"FAA-HELIPORT:0CT0","authority":"FAA Air Traffic Organization"}},
{"type":"Feature","geometry":{"type":"Point","coordinates":[-72.22556,41.71682]},"properties":{"type":"HELIPORT_HOSPITAL","name":"Windham Hospital (WILLIMANTIC, CT)","identifier":"FAA-HELIPORT:0CT2","authority":"FAA Air Traffic Organization"}},
{"type":"Feature","geometry":{"type":"Point","coordinates":[-77.00748,38.86873]},"properties":{"type":"HELIPORT_PUBLIC","name":"South Capitol Street (WASHINGTON, DC)","identifier":"FAA-HELIPORT:09W","authority":"FAA Air Traffic Organization"}},
{"type":"Feature","geometry":{"type":"Point","coordinates":[-75.50492,39.14956]},"properties":{"type":"HELIPORT_PUBLIC","name":"Deldot Helistop (DOVER, DE)","identifier":"FAA-HELIPORT:0N5","authority":"FAA Air Traffic Organization"}},
{"type":"Feature","geometry":{"type":"Point","coordinates":[-75.66687,39.68726]},"properties":{"type":"HELIPORT_HOSPITAL","name":"Christiana Hospital (NEWARK, DE)","identifier":"FAA-HELIPORT:DE26","authority":"FAA Air Traffic Organization"}},
{"type":"Feature","geometry":{"type":"Point","coordinates":[-75.55577,39.78091]},"properties":{"type":"HELIPORT_HOSPITAL","name":"A I  Dupont Children's Hospital (WILMINGTON, DE)","identifier":"FAA-HELIPORT:16DE","authority":"FAA Air Traffic Organization"}},
{"type":"Feature","geometry":{"type":"Point","coordinates":[-73.44529,41.40532]},"properties":{"type":"HELIPORT_HOSPITAL","name":"Danbury Hospital (DANBURY, CT)","identifier":"FAA-HELIPORT:0CT8","authority":"FAA Air Traffic Organization"}},
{"type":"Feature","geometry":{"type":"Point","coordinates":[-72.67864,41.75461]},"properties":{"type":"HELIPORT_HOSPITAL","name":"Hartford Hospital (HARTFORD, CT)","identifier":"FAA-HELIPORT:0CT9","authority":"FAA Air Traffic Organization"}},
{"type":"Feature","geometry":{"type":"Point","coordinates":[-72.69779,41.77494]},"properties":{"type":"HELIPORT_HOSPITAL","name":"St Francis Hospital (HARTFORD, CT)","identifier":"FAA-HELIPORT:0CT5","authority":"FAA Air Traffic Organization"}},
{"type":"Feature","geometry":{"type":"Point","coordinates":[-72.93673,41.30446]},"properties":{"type":"HELIPORT_HOSPITAL","name":"Yale New Haven Hospital (NEW HAVEN, CT)","identifier":"FAA-HELIPORT:1CT2","authority":"FAA Air Traffic Organization"}},
{"type":"Feature","geometry":{"type":"Point","coordinates":[-73.46024,41.56764]},"properties":{"type":"HELIPORT_PUBLIC","name":"Candlelight (NEW MILFORD, CT)","identifier":"FAA-HELIPORT:6Y2","authority":"FAA Air Traffic Organization"}},
{"type":"Feature","geometry":{"type":"Point","coordinates":[-73.42178,41.10968]},"properties":{"type":"HELIPORT_HOSPITAL","name":"Norwalk Hospital (NORWALK, CT)","identifier":"FAA-HELIPORT:5CT4","authority":"FAA Air Traffic Organization"}},
{"type":"Feature","geometry":{"type":"Point","coordinates":[-73.11567,41.72372]},"properties":{"type":"HELIPORT_PUBLIC","name":"Northfield (THOMASTON, CT)","identifier":"FAA-HELIPORT:N09","authority":"FAA Air Traffic Organization"}},
{"type":"Feature","geometry":{"type":"Point","coordinates":[-77.0144,38.92764]},"properties":{"type":"HELIPORT_HOSPITAL","name":"Children's Hospital (WASHINGTON, DC)","identifier":"FAA-HELIPORT:DC17","authority":"FAA Air Traffic Organization"}},
{"type":"Feature","geometry":{"type":"Point","coordinates":[-77.11056,38.93695]},"properties":{"type":"HELIPORT_HOSPITAL","name":"Sibley Meml Hospital (WASHINGTON, DC)","identifier":"FAA-HELIPORT:DC52","authority":"FAA Air Traffic Organization"}},
{"type":"Feature","geometry":{"type":"Point","coordinates":[-81.85099,27.22799]},"properties":{"type":"HELIPORT_HOSPITAL","name":"De Soto Meml Hospital (ARCADIA, FL)","identifier":"FAA-HELIPORT:FD85","authority":"FAA Air Traffic Organization"}},
{"type":"Feature","geometry":{"type":"Point","coordinates":[-82.6218,27.48209]},"properties":{"type":"HELIPORT_HOSPITAL","name":"Hca Florida Blake Hospital (BRADENTON, FL)","identifier":"FAA-HELIPORT:5FL2","authority":"FAA Air Traffic Organization"}},
{"type":"Feature","geometry":{"type":"Point","coordinates":[-82.56256,27.49576]},"properties":{"type":"HELIPORT_HOSPITAL","name":"Manatee Meml Hospital (BRADENTON, FL)","identifier":"FAA-HELIPORT:FL45","authority":"FAA Air Traffic Organization"}},
{"type":"Feature","geometry":{"type":"Point","coordinates":[-82.28878,27.93291]},"properties":{"type":"HELIPORT_HOSPITAL","name":"Hca Florida Brandon Hospital (BRANDON, FL)","identifier":"FAA-HELIPORT:5FL3","authority":"FAA Air Traffic Organization"}},
{"type":"Feature","geometry":{"type":"Point","coordinates":[-84.84242,30.70631]},"properties":{"type":"HELIPORT_HOSPITAL","name":"Florida State Hospital (CHATTAHOOCHEE, FL)","identifier":"FAA-HELIPORT:31FD","authority":"FAA Air Traffic Organization"}},
{"type":"Feature","geometry":{"type":"Point","coordinates":[-85.54377,30.76597]},"properties":{"type":"HELIPORT_HOSPITAL","name":"Northwest Florida Community Hospital (CHIPLEY, FL)","identifier":"FAA-HELIPORT:80FL","authority":"FAA Air Traffic Organization"}},
{"type":"Feature","geometry":{"type":"Point","coordinates":[-80.62223,28.36112]},"properties":{"type":"HELIPORT_HOSPITAL","name":"Cape Canaveral Hospital (COCOA BEACH, FL)","identifier":"FAA-HELIPORT:1FL8","authority":"FAA Air Traffic Organization"}},
{"type":"Feature","geometry":{"type":"Point","coordinates":[-81.05395,29.20138]},"properties":{"type":"HELIPORT_HOSPITAL","name":"Halifax Hospital Medical Center (DAYTONA BEACH, FL)","identifier":"FAA-HELIPORT:29FL","authority":"FAA Air Traffic Organization"}},
{"type":"Feature","geometry":{"type":"Point","coordinates":[-82.782,28.01444]},"properties":{"type":"HELIPORT_HOSPITAL","name":"Mease Hospital (DUNEDIN, FL)","identifier":"FAA-HELIPORT:FA04","authority":"FAA Air Traffic Organization"}},
{"type":"Feature","geometry":{"type":"Point","coordinates":[-80.09221,26.59818]},"properties":{"type":"HELIPORT_HOSPITAL","name":"Hca Florida Jfk Hospital (ATLANTIS, FL)","identifier":"FAA-HELIPORT:1FD3","authority":"FAA Air Traffic Organization"}},
{"type":"Feature","geometry":{"type":"Point","coordinates":[-85.68249,30.7613]},"properties":{"type":"HELIPORT_HOSPITAL","name":"Doctors Hospital (BONIFAY, FL)","identifier":"FAA-HELIPORT:7FD5","authority":"FAA Air Traffic Organization"}},
{"type":"Feature","geometry":{"type":"Point","coordinates":[-80.0705,26.50529]},"properties":{"type":"HELIPORT_HOSPITAL","name":"Bethesda Meml Hospital (BOYNTON BEACH, FL)","identifier":"FAA-HELIPORT:88FD","authority":"FAA Air Traffic Organization"}},
{"type":"Feature","geometry":{"type":"Point","coordinates":[-80.19845,26.52928]},"properties":{"type":"HELIPORT_HOSPITAL","name":"Bethesda West Hospital (BOYNTON BEACH, FL)","identifier":"FAA-HELIPORT:FL47","authority":"FAA Air Traffic Organization"}},
{"type":"Feature","geometry":{"type":"Point","coordinates":[-81.25282,29.46915]},"properties":{"type":"HELIPORT_HOSPITAL","name":"Meml Hospital-Flagler Helistop (PALM COAST, FL)","identifier":"FAA-HELIPORT:1FD8","authority":"FAA Air Traffic Organization"}},
{"type":"Feature","geometry":{"type":"Point","coordinates":[-81.94148,26.63841]},"properties":{"type":"HELIPORT_HOSPITAL","name":"Cape Coral Hospital (CAPE CORAL, FL)","identifier":"FAA-HELIPORT:FD66","authority":"FAA Air Traffic Organization"}},
{"type":"Feature","geometry":{"type":"Point","coordinates":[-82.80625,27.95355]},"properties":{"type":"HELIPORT_HOSPITAL","name":"Morton Plant Hospital (CLEARWATER, FL)","identifier":"FAA-HELIPORT:06FL","authority":"FAA Air Traffic Organization"}},
{"type":"Feature","geometry":{"type":"Point","coordinates":[-86.30532,30.37907]},"properties":{"type":"HELIPORT_HOSPITAL","name":"Sacred Heart Hospital On The Emerald Coast (DESTIN, FL)","identifier":"FAA-HELIPORT:3FL7","authority":"FAA Air Traffic Organization"}},
{"type":"Feature","geometry":{"type":"Point","coordinates":[-80.14206,26.12047]},"properties":{"type":"HELIPORT_PUBLIC","name":"Downtown Fort Lauderdale (FORT LAUDERDALE, FL)","identifier":"FAA-HELIPORT:DT1","authority":"FAA Air Traffic Organization"}},
{"type":"Feature","geometry":{"type":"Point","coordinates":[-80.34604,27.43289]},"properties":{"type":"HELIPORT_HOSPITAL","name":"Hca Florida Lawnwood Hospital (FORT PIERCE, FL)","identifier":"FAA-HELIPORT:FD19","authority":"FAA Air Traffic Organization"}},
{"type":"Feature","geometry":{"type":"Point","coordinates":[-86.63268,30.45515]},"properties":{"type":"HELIPORT_HOSPITAL","name":"Hca Florida Fort Walton-Destin Hospital (FORT WALTON BEACH, FL)","identifier":"FAA-HELIPORT:FD45","authority":"FAA Air Traffic Organization"}},
{"type":"Feature","geometry":{"type":"Point","coordinates":[-87.15886,30.35937]},"properties":{"type":"HELIPORT_HOSPITAL","name":"Gulf Breeze Hospital (GULF BREEZE, FL)","identifier":"FAA-HELIPORT:FD47","authority":"FAA Air Traffic Organization"}},
{"type":"Feature","geometry":{"type":"Point","coordinates":[-80.32661,25.8866]},"properties":{"type":"HELIPORT_HOSPITAL","name":"Palmetto General Hospital (HIALEAH, FL)","identifier":"FAA-HELIPORT:1FA5","authority":"FAA Air Traffic Organization"}},
{"type":"Feature","geometry":{"type":"Point","coordinates":[-80.18133,26.01877]},"properties":{"type":"HELIPORT_HOSPITAL","name":"Meml Rgnl Hospital (HOLLYWOOD, FL)","identifier":"FAA-HELIPORT:77FD","authority":"FAA Air Traffic Organization"}},
{"type":"Feature","geometry":{"type":"Point","coordinates":[-87.15003,30.94959]},"properties":{"type":"HELIPORT_HOSPITAL","name":"Jay Hospital (JAY, FL)","identifier":"FAA-HELIPORT:FA16","authority":"FAA Air Traffic Organization"}},
{"type":"Feature","geometry":{"type":"Point","coordinates":[-81.41025,28.29854]},"properties":{"type":"HELIPORT_HOSPITAL","name":"Hca Florida Osceola Hospital (KISSIMMEE, FL)","identifier":"FAA-HELIPORT:12FD","authority":"FAA Air Traffic Organization"}},
{"type":"Feature","geometry":{"type":"Point","coordinates":[-82.68835,30.18283]},"properties":{"type":"HELIPORT_HOSPITAL","name":"Hca Florida Lake City Hospital (LAKE CITY, FL)","identifier":"FAA-HELIPORT:1FL2","authority":"FAA Air Traffic Organization"}},
{"type":"Feature","geometry":{"type":"Point","coordinates":[-81.86721,28.80797]},"properties":{"type":"HELIPORT_HOSPITAL","name":"Uf Health Leesburg Hospital (LEESBURG, FL)","identifier":"FAA-HELIPORT:3FD2","authority":"FAA Air Traffic Organization"}},
{"type":"Feature","geometry":{"type":"Point","coordinates":[-82.41211,29.66151]},"properties":{"type":"HELIPORT_HOSPITAL","name":"Hca Florida North Florida Hospital (GAINESVILLE, FL)","identifier":"FAA-HELIPORT:FA56","authority":"FAA Air Traffic Organization"}},
{"type":"Feature","geometry":{"type":"Point","coordinates":[-81.60149,30.28935]},"properties":{"type":"HELIPORT_HOSPITAL","name":"Hca Florida Memorial Hospital (JACKSONVILLE, FL)","identifier":"FAA-HELIPORT:FA65","authority":"FAA Air Traffic Organization"}},
{"type":"Feature","geometry":{"type":"Point","coordinates":[-81.66548,30.34956]},"properties":{"type":"HELIPORT_HOSPITAL","name":"Shands Jacksonville Hospital (JACKSONVILLE, FL)","identifier":"FAA-HELIPORT:FA61","authority":"FAA Air Traffic Organization"}},
{"type":"Feature","geometry":{"type":"Point","coordinates":[-81.95988,28.94973]},"properties":{"type":"HELIPORT_HOSPITAL","name":"Uf Health Spanish Plaines Hospital (THE VILLAGES, FL)","identifier":"FAA-HELIPORT:FL20","authority":"FAA Air Traffic Organization"}},
{"type":"Feature","geometry":{"type":"Point","coordinates":[-82.63078,30.19217]},"properties":{"type":"HELIPORT_HOSPITAL","name":"Lake Shore Hospital (LAKE CITY, FL)","identifier":"FAA-HELIPORT:86FL","authority":"FAA Air Traffic Organization"}},
{"type":"Feature","geometry":{"type":"Point","coordinates":[-81.37048,27.32054]},"properties":{"type":"HELIPORT_HOSPITAL","name":"Florida Hospital Lake Placid (LAKE PLACID, FL)","identifier":"FAA-HELIPORT:30FA","authority":"FAA Air Traffic Organization"}},
{"type":"Feature","geometry":{"type":"Point","coordinates":[-80.25155,26.68467]},"properties":{"type":"HELIPORT_HOSPITAL","name":"Hca Florida Palms West Hospital (LOXAHATCHEE, FL)","identifier":"FAA-HELIPORT:FA19","authority":"FAA Air Traffic Organization"}},
{"type":"Feature","geometry":{"type":"Point","coordinates":[-82.50926,28.13059]},"properties":{"type":"HELIPORT_HOSPITAL","name":"St Joseph's Hospital North (LUTZ, FL)","identifier":"FAA-HELIPORT:FA70","authority":"FAA Air Traffic Organization"}},
{"type":"Feature","geometry":{"type":"Point","coordinates":[-81.09389,24.71056]},"properties":{"type":"HELIPORT_HOSPITAL","name":"Fishermen's Hospital Emergency Helistop (MARATHON, FL)","identifier":"FAA-HELIPORT:10FL","authority":"FAA Air Traffic Organization"}},
{"type":"Feature","geometry":{"type":"Point","coordinates":[-80.73098,28.22678]},"properties":{"type":"HELIPORT_HOSPITAL","name":"Viera Hospital (MELBOURNE, FL)","identifier":"FAA-HELIPORT:8FA7","authority":"FAA Air Traffic Organization"}},
{"type":"Feature","geometry":{"type":"Point","coordinates":[-80.33848,25.68608]},"properties":{"type":"HELIPORT_HOSPITAL","name":"Baptist Hospital (MIAMI, FL)","identifier":"FAA-HELIPORT:9FA8","authority":"FAA Air Traffic Organization"}},
{"type":"Feature","geometry":{"type":"Point","coordinates":[-80.29467,25.74094]},"properties":{"type":"HELIPORT_HOSPITAL","name":"Nicklaus Childrens Hospital (MIAMI, FL)","identifier":"FAA-HELIPORT:FA76","authority":"FAA Air Traffic Organization"}},
{"type":"Feature","geometry":{"type":"Point","coordinates":[-80.21319,25.73938]},"properties":{"type":"HELIPORT_HOSPITAL","name":"Hca Florida Mercy Hospital (MIAMI, FL)","identifier":"FAA-HELIPORT:FL25","authority":"FAA Air Traffic Organization"}},
{"type":"Feature","geometry":{"type":"Point","coordinates":[-81.79777,26.15103]},"properties":{"type":"HELIPORT_HOSPITAL","name":"Naples Community Hospital (NAPLES, FL)","identifier":"FAA-HELIPORT:FD97","authority":"FAA Air Traffic Organization"}},
{"type":"Feature","geometry":{"type":"Point","coordinates":[-82.72236,28.23516]},"properties":{"type":"HELIPORT_HOSPITAL","name":"Hca Florida Trinity West Hospital (NEW PORT RICHEY, FL)","identifier":"FAA-HELIPORT:FL30","authority":"FAA Air Traffic Organization"}},
{"type":"Feature","geometry":{"type":"Point","coordinates":[-82.68803,28.36243]},"properties":{"type":"HELIPORT_HOSPITAL","name":"Hca Florida Bayonet Point Hospital (NEW PORT RICHEY, FL)","identifier":"FAA-HELIPORT:FL32","authority":"FAA Air Traffic Organization"}},
{"type":"Feature","geometry":{"type":"Point","coordinates":[-82.71389,28.25556]},"properties":{"type":"HELIPORT_HOSPITAL","name":"North Bay Hospital (NEW PORT RICHEY, FL)","identifier":"FAA-HELIPORT:6FA6","authority":"FAA Air Traffic Organization"}},
{"type":"Feature","geometry":{"type":"Point","coordinates":[-81.28473,28.91473]},"properties":{"type":"HELIPORT_HOSPITAL","name":"Florida Hospital-Fish Meml (ORANGE CITY, FL)","identifier":"FAA-HELIPORT:3FL2","authority":"FAA Air Traffic Organization"}},
{"type":"Feature","geometry":{"type":"Point","coordinates":[-81.73625,30.16528]},"properties":{"type":"HELIPORT_HOSPITAL","name":"Hca Florida Orange Park Hospital (ORANGE PARK, FL)","identifier":"FAA-HELIPORT:20FA","authority":"FAA Air Traffic Organization"}},
{"type":"Feature","geometry":{"type":"Point","coordinates":[-85.24092,30.78733]},"properties":{"type":"HELIPORT_HOSPITAL","name":"Jackson County Hospital (MARIANNA, FL)","identifier":"FAA-HELIPORT:28FD","authority":"FAA Air Traffic Organization"}},
{"type":"Feature","geometry":{"type":"Point","coordinates":[-80.38611,25.73112]},"properties":{"type":"HELIPORT_HOSPITAL","name":"Hca Florida Kendall Hospital (MIAMI, FL)","identifier":"FAA-HELIPORT:70FL","authority":"FAA Air Traffic Organization"}},
{"type":"Feature","geometry":{"type":"Point","coordinates":[-80.21147,25.79287]},"properties":{"type":"HELIPORT_HOSPITAL","name":"Jackson Meml Hospital (MIAMI, FL)","identifier":"FAA-HELIPORT:25FA","authority":"FAA Air Traffic Organization"}},
{"type":"Feature","geometry":{"type":"Point","coordinates":[-86.49678,30.53423]},"properties":{"type":"HELIPORT_HOSPITAL","name":"Hca Florida Twin Cities Hospital (NICEVILLE, FL)","identifier":"FAA-HELIPORT:6FL5","authority":"FAA Air Traffic Organization"}},
{"type":"Feature","geometry":{"type":"Point","coordinates":[-80.82911,27.25911]},"properties":{"type":"HELIPORT_HOSPITAL","name":"Hca Florida Raulerson Hospital (OKEECHOBEE, FL)","identifier":"FAA-HELIPORT:26FL","authority":"FAA Air Traffic Organization"}},
{"type":"Feature","geometry":{"type":"Point","coordinates":[-81.4773,28.42862]},"properties":{"type":"HELIPORT_HOSPITAL","name":"Dr P Phillips Hospital (ORLANDO, FL)","identifier":"FAA-HELIPORT:FD99","authority":"FAA Air Traffic Organization"}},
{"type":"Feature","geometry":{"type":"Point","coordinates":[-81.38019,28.52313]},"properties":{"type":"HELIPORT_HOSPITAL","name":"Arnold Palmer Hospital (ORLANDO, FL)","identifier":"FAA-HELIPORT:3FD5","authority":"FAA Air Traffic Organization"}},
{"type":"Feature","geometry":{"type":"Point","coordinates":[-81.69291,29.64354]},"properties":{"type":"HELIPORT_HOSPITAL","name":"Hca Florida Putnam Hospital (PALATKA, FL)","identifier":"FAA-HELIPORT:30FL","authority":"FAA Air Traffic Organization"}},
{"type":"Feature","geometry":{"type":"Point","coordinates":[-80.31116,26.01311]},"properties":{"type":"HELIPORT_HOSPITAL","name":"Meml Hospital West Helistop (PEMBROKE PINES, FL)","identifier":"FAA-HELIPORT:FA21","authority":"FAA Air Traffic Organization"}},
{"type":"Feature","geometry":{"type":"Point","coordinates":[-87.21217,30.47449]},"properties":{"type":"HELIPORT_HOSPITAL","name":"Sacred Heart Hospital (PENSACOLA, FL)","identifier":"FAA-HELIPORT:9FD1","authority":"FAA Air Traffic Organization"}},
{"type":"Feature","geometry":{"type":"Point","coordinates":[-87.23109,30.42937]},"properties":{"type":"HELIPORT_HOSPITAL","name":"Baptist Hospital (PENSACOLA, FL)","identifier":"FAA-HELIPORT:FL85","authority":"FAA Air Traffic Organization"}},
{"type":"Feature","geometry":{"type":"Point","coordinates":[-87.21968,30.51654]},"properties":{"type":"HELIPORT_HOSPITAL","name":"Hca Florida West Hospital (PENSACOLA, FL)","identifier":"FAA-HELIPORT:FL24","authority":"FAA Air Traffic Organization"}},
{"type":"Feature","geometry":{"type":"Point","coordinates":[-83.59274,30.11976]},"properties":{"type":"HELIPORT_HOSPITAL","name":"Doctors Meml Hospital #2 (PERRY, FL)","identifier":"FAA-HELIPORT:0FA2","authority":"FAA Air Traffic Organization"}},
{"type":"Feature","geometry":{"type":"Point","coordinates":[-82.70738,28.04281]},"properties":{"type":"HELIPORT_HOSPITAL","name":"Mease Countryside Hospital (SAFETY HARBOR, FL)","identifier":"FAA-HELIPORT:36FL","authority":"FAA Air Traffic Organization"}},
{"type":"Feature","geometry":{"type":"Point","coordinates":[-81.31676,29.86195]},"properties":{"type":"HELIPORT_HOSPITAL","name":"Flagler Hospital (ST AUGUSTINE, FL)","identifier":"FAA-HELIPORT:38FL","authority":"FAA Air Traffic Organization"}},
{"type":"Feature","geometry":{"type":"Point","coordinates":[-81.28373,28.81369]},"properties":{"type":"HELIPORT_HOSPITAL","name":"Hca Florida Lake Monroe Hospital (SANFORD, FL)","identifier":"FAA-HELIPORT:2FA8","authority":"FAA Air Traffic Organization"}},
{"type":"Feature","geometry":{"type":"Point","coordinates":[-82.5304,27.31785]},"properties":{"type":"HELIPORT_HOSPITAL","name":"Sarasota Meml Hospital (SARASOTA, FL)","identifier":"FAA-HELIPORT:FA23","authority":"FAA Air Traffic Organization"}},
{"type":"Feature","geometry":{"type":"Point","coordinates":[-84.26108,30.45727]},"properties":{"type":"HELIPORT_HOSPITAL","name":"Tallahassee Meml Hospital (TALLAHASSEE, FL)","identifier":"FAA-HELIPORT:FD18","authority":"FAA Air Traffic Organization"}},
{"type":"Feature","geometry":{"type":"Point","coordinates":[-80.52233,25.00692]},"properties":{"type":"HELIPORT_HOSPITAL","name":"Mariners Hospital (TAVERNIER, FL)","identifier":"FAA-HELIPORT:FD05","authority":"FAA Air Traffic Organization"}},
{"type":"Feature","geometry":{"type":"Point","coordinates":[-80.822,28.62945]},"properties":{"type":"HELIPORT_HOSPITAL","name":"North Brevard Hospital District (TITUSVILLE, FL)","identifier":"FAA-HELIPORT:46FL","authority":"FAA Air Traffic Organization"}},
{"type":"Feature","geometry":{"type":"Point","coordinates":[-81.72506,28.02881]},"properties":{"type":"HELIPORT_HOSPITAL","name":"Winter Haven Hospital (WINTER HAVEN, FL)","identifier":"FAA-HELIPORT:60FD","authority":"FAA Air Traffic Organization"}},
{"type":"Feature","geometry":{"type":"Point","coordinates":[-85.28888,29.77838]},"properties":{"type":"HELIPORT_HOSPITAL","name":"Sacred Heart Hospital On The Gulf (PORT ST.  JOE, FL)","identifier":"FAA-HELIPORT:8FA5","authority":"FAA Air Traffic Organization"}},
{"type":"Feature","geometry":{"type":"Point","coordinates":[-80.29286,27.28845]},"properties":{"type":"HELIPORT_HOSPITAL","name":"Hca Florida St Lucie Hospital (PORT ST LUCIE, FL)","identifier":"FAA-HELIPORT:FL22","authority":"FAA Air Traffic Organization"}},
{"type":"Feature","geometry":{"type":"Point","coordinates":[-84.54991,30.57048]},"properties":{"type":"HELIPORT_HOSPITAL","name":"Gadsden Meml Hospital (QUINCY, FL)","identifier":"FAA-HELIPORT:29FD","authority":"FAA Air Traffic Organization"}},
{"type":"Feature","geometry":{"type":"Point","coordinates":[-81.30451,28.24325]},"properties":{"type":"HELIPORT_HOSPITAL","name":"Orland Health St Cloud Hospital (ST CLOUD, FL)","identifier":"FAA-HELIPORT:FD52","authority":"FAA Air Traffic Organization"}},
{"type":"Feature","geometry":{"type":"Point","coordinates":[-81.50928,27.53805]},"properties":{"type":"HELIPORT_HOSPITAL","name":"Advent Hospital-Sebring (SEBRING, FL)","identifier":"FAA-HELIPORT:FA52","authority":"FAA Air Traffic Organization"}},
{"type":"Feature","geometry":{"type":"Point","coordinates":[-82.45947,27.93927]},"properties":{"type":"HELIPORT_HOSPITAL","name":"Tampa General Hospital (TAMPA, FL)","identifier":"FAA-HELIPORT:61FL","authority":"FAA Air Traffic Organization"}},
{"type":"Feature","geometry":{"type":"Point","coordinates":[-80.39614,27.65841]},"properties":{"type":"HELIPORT_HOSPITAL","name":"Indian River Meml Hospital (VERO BEACH, FL)","identifier":"FAA-HELIPORT:3FD7","authority":"FAA Air Traffic Organization"}},
{"type":"Feature","geometry":{"type":"Point","coordinates":[-80.06127,26.75644]},"properties":{"type":"HELIPORT_HOSPITAL","name":"St Marys Hospital (WEST PALM BEACH, FL)","identifier":"FAA-HELIPORT:64FD","authority":"FAA Air Traffic Organization"}},
{"type":"Feature","geometry":{"type":"Point","coordinates":[-84.38688,33.76867]},"properties":{"type":"HELIPORT_HOSPITAL","name":"Emory University Hospital Midtown (ATLANTA, GA)","identifier":"FAA-HELIPORT:GA64","authority":"FAA Air Traffic Organization"}},
{"type":"Feature","geometry":{"type":"Point","coordinates":[-84.32259,33.79193]},"properties":{"type":"HELIPORT_HOSPITAL","name":"Emory University Hospital (ATLANTA, GA)","identifier":"FAA-HELIPORT:7GA8","authority":"FAA Air Traffic Organization"}},
{"type":"Feature","geometry":{"type":"Point","coordinates":[-84.35102,33.90837]},"properties":{"type":"HELIPORT_HOSPITAL","name":"St Joseph's Hospital (ATLANTA, GA)","identifier":"FAA-HELIPORT:GA52","authority":"FAA Air Traffic Organization"}},
{"type":"Feature","geometry":{"type":"Point","coordinates":[-84.3824,33.75228]},"properties":{"type":"HELIPORT_HOSPITAL","name":"Grady Meml Hospital (ATLANTA, GA)","identifier":"FAA-HELIPORT:1GE8","authority":"FAA Air Traffic Organization"}},
{"type":"Feature","geometry":{"type":"Point","coordinates":[-84.35577,33.90986]},"properties":{"type":"HELIPORT_HOSPITAL","name":"Northside Hospital (ATLANTA, GA)","identifier":"FAA-HELIPORT:GA55","authority":"FAA Air Traffic Organization"}},
{"type":"Feature","geometry":{"type":"Point","coordinates":[-81.98794,33.47127]},"properties":{"type":"HELIPORT_HOSPITAL","name":"Wellstar McG/Wellstar Childrens Hospital Of (AUGUSTA, GA)","identifier":"FAA-HELIPORT:4GA2","authority":"FAA Air Traffic Organization"}},
{"type":"Feature","geometry":{"type":"Point","coordinates":[-81.98324,33.47165]},"properties":{"type":"HELIPORT_HOSPITAL","name":"University Hospital (AUGUSTA, GA)","identifier":"FAA-HELIPORT:GA13","authority":"FAA Air Traffic Organization"}},
{"type":"Feature","geometry":{"type":"Point","coordinates":[-83.96191,34.88532]},"properties":{"type":"HELIPORT_HOSPITAL","name":"Union General Hospital (BLAIRSVILLE, GA)","identifier":"FAA-HELIPORT:1GA3","authority":"FAA Air Traffic Organization"}},
{"type":"Feature","geometry":{"type":"Point","coordinates":[-84.00278,33.68008]},"properties":{"type":"HELIPORT_HOSPITAL","name":"Rockdale Hospital (CONYERS, GA)","identifier":"FAA-HELIPORT:3GE5","authority":"FAA Air Traffic Organization"}},
{"type":"Feature","geometry":{"type":"Point","coordinates":[-84.60668,33.85721]},"properties":{"type":"HELIPORT_HOSPITAL","name":"Cobb General Hospital (AUSTELL, GA)","identifier":"FAA-HELIPORT:34GA","authority":"FAA Air Traffic Organization"}},
{"type":"Feature","geometry":{"type":"Point","coordinates":[-84.55315,30.90357]},"properties":{"type":"HELIPORT_HOSPITAL","name":"Meml Hospital (BAINBRIDGE, GA)","identifier":"FAA-HELIPORT:4GA3","authority":"FAA Air Traffic Organization"}},
{"type":"Feature","geometry":{"type":"Point","coordinates":[-82.34983,31.76947]},"properties":{"type":"HELIPORT_HOSPITAL","name":"Appling General Hospital (BAXLEY, GA)","identifier":"FAA-HELIPORT:GA78","authority":"FAA Air Traffic Organization"}},
{"type":"Feature","geometry":{"type":"Point","coordinates":[-84.49118,34.24677]},"properties":{"type":"HELIPORT_HOSPITAL","name":"Northside Hospital-Cherokee (CANTON, GA)","identifier":"FAA-HELIPORT:8GE8","authority":"FAA Air Traffic Organization"}},
{"type":"Feature","geometry":{"type":"Point","coordinates":[-83.84868,33.60181]},"properties":{"type":"HELIPORT_HOSPITAL","name":"Piedmont Newton Hospital (COVINGTON, GA)","identifier":"FAA-HELIPORT:71GA","authority":"FAA Air Traffic Organization"}},
{"type":"Feature","geometry":{"type":"Point","coordinates":[-84.73229,33.73849]},"properties":{"type":"HELIPORT_HOSPITAL","name":"Wellstar Douglas Hospital (DOUGLASVILLE, GA)","identifier":"FAA-HELIPORT:3GE6","authority":"FAA Air Traffic Organization"}},
{"type":"Feature","geometry":{"type":"Point","coordinates":[-82.95048,32.53335]},"properties":{"type":"HELIPORT_HOSPITAL","name":"Fairview Park Hospital (DUBLIN, GA)","identifier":"FAA-HELIPORT:48GA","authority":"FAA Air Traffic Organization"}},
{"type":"Feature","geometry":{"type":"Point","coordinates":[-84.1775,34.06751]},"properties":{"type":"HELIPORT_HOSPITAL","name":"Emory Johns Creek Hospital (DULUTH, GA)","identifier":"FAA-HELIPORT:GE28","authority":"FAA Air Traffic Organization"}},
{"type":"Feature","geometry":{"type":"Point","coordinates":[-83.94503,33.0309]},"properties":{"type":"HELIPORT_HOSPITAL","name":"Monroe County Hospital (FORSYTH, GA)","identifier":"FAA-HELIPORT:GA24","authority":"FAA Air Traffic Organization"}},
{"type":"Feature","geometry":{"type":"Point","coordinates":[-83.79587,34.31944]},"properties":{"type":"HELIPORT_HOSPITAL","name":"Lanier Park Hospital (GAINESVILLE, GA)","identifier":"FAA-HELIPORT:38GA","authority":"FAA Air Traffic Organization"}},
{"type":"Feature","geometry":{"type":"Point","coordinates":[-81.89853,31.60139]},"properties":{"type":"HELIPORT_HOSPITAL","name":"Wayne Meml Hospital (JESUP, GA)","identifier":"FAA-HELIPORT:39GA","authority":"FAA Air Traffic Organization"}},
{"type":"Feature","geometry":{"type":"Point","coordinates":[-84.0183,33.96352]},"properties":{"type":"HELIPORT_HOSPITAL","name":"Northside Hospital Gwinnett (LAWRENCEVILLE, GA)","identifier":"FAA-HELIPORT:55GA","authority":"FAA Air Traffic Organization"}},
{"type":"Feature","geometry":{"type":"Point","coordinates":[-82.06515,32.40753]},"properties":{"type":"HELIPORT_HOSPITAL","name":"Candler County Hospital (METTER, GA)","identifier":"FAA-HELIPORT:GA32","authority":"FAA Air Traffic Organization"}},
{"type":"Feature","geometry":{"type":"Point","coordinates":[-84.75584,33.35834]},"properties":{"type":"HELIPORT_HOSPITAL","name":"Piedmont Hospital-Newnan (NEWNAN, GA)","identifier":"FAA-HELIPORT:21GA","authority":"FAA Air Traffic Organization"}},
{"type":"Feature","geometry":{"type":"Point","coordinates":[-83.204,33.02728]},"properties":{"type":"HELIPORT_HOSPITAL","name":"Central State Hospital (MILLEDGEVILLE, GA)","identifier":"FAA-HELIPORT:6GA6","authority":"FAA Air Traffic Organization"}},
{"type":"Feature","geometry":{"type":"Point","coordinates":[-81.15606,31.98485]},"properties":{"type":"HELIPORT_HOSPITAL","name":"St Joseph's Hospital (SAVANNAH, GA)","identifier":"FAA-HELIPORT:46GA","authority":"FAA Air Traffic Organization"}},
{"type":"Feature","geometry":{"type":"Point","coordinates":[-81.08853,32.02894]},"properties":{"type":"HELIPORT_HOSPITAL","name":"Meml Hospital (SAVANNAH, GA)","identifier":"FAA-HELIPORT:GA37","authority":"FAA Air Traffic Organization"}},
{"type":"Feature","geometry":{"type":"Point","coordinates":[-84.22816,33.51365]},"properties":{"type":"HELIPORT_HOSPITAL","name":"Piedmont Henry Hospital (STOCKBRIDGE, GA)","identifier":"FAA-HELIPORT:43GA","authority":"FAA Air Traffic Organization"}},
{"type":"Feature","geometry":{"type":"Point","coordinates":[-82.34803,32.59288]},"properties":{"type":"HELIPORT_HOSPITAL","name":"Emanuel County Hospital (SWAINSBORO, GA)","identifier":"FAA-HELIPORT:93GA","authority":"FAA Air Traffic Organization"}},
{"type":"Feature","geometry":{"type":"Point","coordinates":[-82.01336,33.08332]},"properties":{"type":"HELIPORT_HOSPITAL","name":"Burke County Hospital (WAYNESBORO, GA)","identifier":"FAA-HELIPORT:2GE1","authority":"FAA Air Traffic Organization"}},
{"type":"Feature","geometry":{"type":"Point","coordinates":[-92.79771,41.04307]},"properties":{"type":"HELIPORT_HOSPITAL","name":"Monroe County Hospital (ALBIA, IA)","identifier":"FAA-HELIPORT:IA22","authority":"FAA Air Traffic Organization"}},
{"type":"Feature","geometry":{"type":"Point","coordinates":[-93.87648,42.05629]},"properties":{"type":"HELIPORT_HOSPITAL","name":"Boone County Hospital (BOONE, IA)","identifier":"FAA-HELIPORT:02IA","authority":"FAA Air Traffic Organization"}},
{"type":"Feature","geometry":{"type":"Point","coordinates":[-94.86727,42.05595]},"properties":{"type":"HELIPORT_HOSPITAL","name":"St Anthony Rgnl Hospital (CARROLL, IA)","identifier":"FAA-HELIPORT:0IA1","authority":"FAA Air Traffic Organization"}},
{"type":"Feature","geometry":{"type":"Point","coordinates":[-91.66157,41.98509]},"properties":{"type":"HELIPORT_HOSPITAL","name":"St Lukes Hospital Emergency (CEDAR RAPIDS, IA)","identifier":"FAA-HELIPORT:IA73","authority":"FAA Air Traffic Organization"}},
{"type":"Feature","geometry":{"type":"Point","coordinates":[-91.65663,41.97782]},"properties":{"type":"HELIPORT_HOSPITAL","name":"Mercy Hospital (CEDAR RAPIDS, IA)","identifier":"FAA-HELIPORT:IA72","authority":"FAA Air Traffic Organization"}},
{"type":"Feature","geometry":{"type":"Point","coordinates":[-93.31054,40.75399]},"properties":{"type":"HELIPORT_HOSPITAL","name":"Wayne County Hospital (CORYDON, IA)","identifier":"FAA-HELIPORT:IA46","authority":"FAA Air Traffic Organization"}},
{"type":"Feature","geometry":{"type":"Point","coordinates":[-95.8345,41.26945]},"properties":{"type":"HELIPORT_HOSPITAL","name":"Jennie Edmundson Hospital (COUNCIL BLUFFS, IA)","identifier":"FAA-HELIPORT:6IA2","authority":"FAA Air Traffic Organization"}},
{"type":"Feature","geometry":{"type":"Point","coordinates":[-93.62429,41.59945]},"properties":{"type":"HELIPORT_HOSPITAL","name":"Mercy Hospital Medical Center Private (DES MOINES, IA)","identifier":"FAA-HELIPORT:IA82","authority":"FAA Air Traffic Organization"}},
{"type":"Feature","geometry":{"type":"Point","coordinates":[-93.61088,41.6019]},"properties":{"type":"HELIPORT_HOSPITAL","name":"Iowa Lutheran Hospital Life Flight (DES MOINES, IA)","identifier":"FAA-HELIPORT:IA98","authority":"FAA Air Traffic Organization"}},
{"type":"Feature","geometry":{"type":"Point","coordinates":[-90.68602,42.49692]},"properties":{"type":"HELIPORT_HOSPITAL","name":"Finley Hospital (DUBUQUE, IA)","identifier":"FAA-HELIPORT:2IA1","authority":"FAA Air Traffic Organization"}},
{"type":"Feature","geometry":{"type":"Point","coordinates":[-94.45101,41.30398]},"properties":{"type":"HELIPORT_HOSPITAL","name":"Adair County Meml Hospital (GREENFIELD, IA)","identifier":"FAA-HELIPORT:75IA","authority":"FAA Air Traffic Organization"}},
{"type":"Feature","geometry":{"type":"Point","coordinates":[-91.54751,41.65989]},"properties":{"type":"HELIPORT_HOSPITAL","name":"University of Iowa Hospitals & Clinic (IOWA CITY, IA)","identifier":"FAA-HELIPORT:1IA7","authority":"FAA Air Traffic Organization"}},
{"type":"Feature","geometry":{"type":"Point","coordinates":[-93.74564,40.75152]},"properties":{"type":"HELIPORT_HOSPITAL","name":"Decatur County Hospital (LEON, IA)","identifier":"FAA-HELIPORT:6IA0","authority":"FAA Air Traffic Organization"}},
{"type":"Feature","geometry":{"type":"Point","coordinates":[-94.99131,41.40062]},"properties":{"type":"HELIPORT_HOSPITAL","name":"Cass County Meml Hospital (ATLANTIC, IA)","identifier":"FAA-HELIPORT:IA67","authority":"FAA Air Traffic Organization"}},
{"type":"Feature","geometry":{"type":"Point","coordinates":[-94.93771,41.71484]},"properties":{"type":"HELIPORT_HOSPITAL","name":"Audubon County Meml Hospital (AUDUBON, IA)","identifier":"FAA-HELIPORT:0IA2","authority":"FAA Air Traffic Organization"}},
{"type":"Feature","geometry":{"type":"Point","coordinates":[-92.41506,40.75946]},"properties":{"type":"HELIPORT_HOSPITAL","name":"Davis County Hospital (BLOOMFIELD, IA)","identifier":"FAA-HELIPORT:63IA","authority":"FAA Air Traffic Organization"}},
{"type":"Feature","geometry":{"type":"Point","coordinates":[-92.68418,43.05105]},"properties":{"type":"HELIPORT_HOSPITAL","name":"Floyd County Meml Hospital (CHARLES CITY, IA)","identifier":"FAA-HELIPORT:4IA3","authority":"FAA Air Traffic Organization"}},
{"type":"Feature","geometry":{"type":"Point","coordinates":[-93.73443,42.72114]},"properties":{"type":"HELIPORT_HOSPITAL","name":"Iowa Speciality Hospital (CLARION, IA)","identifier":"FAA-HELIPORT:4IA5","authority":"FAA Air Traffic Organization"}},
{"type":"Feature","geometry":{"type":"Point","coordinates":[-94.3832,41.0689]},"properties":{"type":"HELIPORT_HOSPITAL","name":"Greater Community Hospital (CRESTON, IA)","identifier":"FAA-HELIPORT:4IA0","authority":"FAA Air Traffic Organization"}},
{"type":"Feature","geometry":{"type":"Point","coordinates":[-94.69249,43.1207]},"properties":{"type":"HELIPORT_HOSPITAL","name":"Palo Alto County Hospital (EMMETSBURG, IA)","identifier":"FAA-HELIPORT:IA79","authority":"FAA Air Traffic Organization"}},
{"type":"Feature","geometry":{"type":"Point","coordinates":[-95.6512,40.62102]},"properties":{"type":"HELIPORT_HOSPITAL","name":"Grape Community Hospital (HAMBURG, IA)","identifier":"FAA-HELIPORT:2IA5","authority":"FAA Air Traffic Organization"}},
{"type":"Feature","geometry":{"type":"Point","coordinates":[-95.32587,41.64707]},"properties":{"type":"HELIPORT_HOSPITAL","name":"Myrtue Meml Hospital (HARLAN, IA)","identifier":"FAA-HELIPORT:IA55","authority":"FAA Air Traffic Organization"}},
{"type":"Feature","geometry":{"type":"Point","coordinates":[-94.23113,42.73304]},"properties":{"type":"HELIPORT_HOSPITAL","name":"Humboldt County Meml Hospital (HUMBOLDT, IA)","identifier":"FAA-HELIPORT:IA90","authority":"FAA Air Traffic Organization"}},
{"type":"Feature","geometry":{"type":"Point","coordinates":[-95.46067,42.33917]},"properties":{"type":"HELIPORT_HOSPITAL","name":"Horn Meml Hospital (IDA GROVE, IA)","identifier":"FAA-HELIPORT:IA37","authority":"FAA Air Traffic Organization"}},
{"type":"Feature","geometry":{"type":"Point","coordinates":[-93.11175,41.31155]},"properties":{"type":"HELIPORT_HOSPITAL","name":"Knoxville Area Community Hospital (KNOXVILLE, IA)","identifier":"FAA-HELIPORT:0IA0","authority":"FAA Air Traffic Organization"}},
{"type":"Feature","geometry":{"type":"Point","coordinates":[-94.74824,42.26572]},"properties":{"type":"HELIPORT_HOSPITAL","name":"Stewart Meml Hospital (LAKE CITY, IA)","identifier":"FAA-HELIPORT:2IA6","authority":"FAA Air Traffic Organization"}},
{"type":"Feature","geometry":{"type":"Point","coordinates":[-92.62885,41.29964]},"properties":{"type":"HELIPORT_HOSPITAL","name":"Mahaska County Hospital (OSKALOOSA, IA)","identifier":"FAA-HELIPORT:IA34","authority":"FAA Air Traffic Organization"}},
{"type":"Feature","geometry":{"type":"Point","coordinates":[-92.39137,41.02898]},"properties":{"type":"HELIPORT_HOSPITAL","name":"Ottumwa Hospital (OTTUMWA, IA)","identifier":"FAA-HELIPORT:3IA6","authority":"FAA Air Traffic Organization"}},
{"type":"Feature","geometry":{"type":"Point","coordinates":[-95.36888,40.75278]},"properties":{"type":"HELIPORT_HOSPITAL","name":"Shenandoah Hospital (SHENANDOAH, IA)","identifier":"FAA-HELIPORT:23IA","authority":"FAA Air Traffic Organization"}},
{"type":"Feature","geometry":{"type":"Point","coordinates":[-92.01221,42.17449]},"properties":{"type":"HELIPORT_HOSPITAL","name":"Virginia Gay Hospital (VINTON, IA)","identifier":"FAA-HELIPORT:IA78","authority":"FAA Air Traffic Organization"}},
{"type":"Feature","geometry":{"type":"Point","coordinates":[-91.68653,41.28977]},"properties":{"type":"HELIPORT_HOSPITAL","name":"Washington County Hospital (WASHINGTON, IA)","identifier":"FAA-HELIPORT:3IA0","authority":"FAA Air Traffic Organization"}},
{"type":"Feature","geometry":{"type":"Point","coordinates":[-92.33989,42.5255]},"properties":{"type":"HELIPORT_HOSPITAL","name":"Allen Meml Hospital (WATERLOO, IA)","identifier":"FAA-HELIPORT:IA29","authority":"FAA Air Traffic Organization"}},
{"type":"Feature","geometry":{"type":"Point","coordinates":[-116.69587,43.65413]},"properties":{"type":"HELIPORT_HOSPITAL","name":"West Valley Hospital (CALDWELL, ID)","identifier":"FAA-HELIPORT:ID80","authority":"FAA Air Traffic Organization"}},
{"type":"Feature","geometry":{"type":"Point","coordinates":[-116.4845,43.88063]},"properties":{"type":"HELIPORT_HOSPITAL","name":"Walter Knox Meml Hospital (EMMETT, ID)","identifier":"FAA-HELIPORT:98ID","authority":"FAA Air Traffic Organization"}},
{"type":"Feature","geometry":{"type":"Point","coordinates":[-91.9017,42.67578]},"properties":{"type":"HELIPORT_HOSPITAL","name":"Mercy Hospital (OELWEIN, IA)","identifier":"FAA-HELIPORT:IA57","authority":"FAA Air Traffic Organization"}},
{"type":"Feature","geometry":{"type":"Point","coordinates":[-93.76634,41.02584]},"properties":{"type":"HELIPORT_HOSPITAL","name":"Clarke County Hospital (OSCEOLA, IA)","identifier":"FAA-HELIPORT:6IA9","authority":"FAA Air Traffic Organization"}},
{"type":"Feature","geometry":{"type":"Point","coordinates":[-96.28356,43.20123]},"properties":{"type":"HELIPORT_HOSPITAL","name":"Hegg Meml Hospital (ROCK VALLEY, IA)","identifier":"FAA-HELIPORT:8IA1","authority":"FAA Air Traffic Organization"}},
{"type":"Feature","geometry":{"type":"Point","coordinates":[-94.97837,42.41889]},"properties":{"type":"HELIPORT_HOSPITAL","name":"Loring Hospital (SAC CITY, IA)","identifier":"FAA-HELIPORT:6IA1","authority":"FAA Air Traffic Organization"}},
{"type":"Feature","geometry":{"type":"Point","coordinates":[-95.14277,43.15029]},"properties":{"type":"HELIPORT_HOSPITAL","name":"Spencer Muni Hospital (SPENCER, IA)","identifier":"FAA-HELIPORT:1IA3","authority":"FAA Air Traffic Organization"}},
{"type":"Feature","geometry":{"type":"Point","coordinates":[-93.91404,41.87153]},"properties":{"type":"HELIPORT_HOSPITAL","name":"Woodward State Hospital (WOODWARD, IA)","identifier":"FAA-HELIPORT:IA89","authority":"FAA Air Traffic Organization"}},
{"type":"Feature","geometry":{"type":"Point","coordinates":[-111.29948,42.31658]},"properties":{"type":"HELIPORT_HOSPITAL","name":"Bear Lake Meml Hospital Helipad (MONTPELIER, ID)","identifier":"FAA-HELIPORT:16ID","authority":"FAA Air Traffic Organization"}},
{"type":"Feature","geometry":{"type":"Point","coordinates":[-88.17173,42.19577]},"properties":{"type":"HELIPORT_HOSPITAL","name":"Advocate Good Shepherd Hospital (BARRINGTON, IL)","identifier":"FAA-HELIPORT:IL08","authority":"FAA Air Traffic Organization"}},
{"type":"Feature","geometry":{"type":"Point","coordinates":[-90.02189,38.55069]},"properties":{"type":"HELIPORT_HOSPITAL","name":"Meml Hospital (BELLEVILLE, IL)","identifier":"FAA-HELIPORT:60LL","authority":"FAA Air Traffic Organization"}},
{"type":"Feature","geometry":{"type":"Point","coordinates":[-116.25961,46.4865]},"properties":{"type":"HELIPORT_HOSPITAL","name":"Clearwater Valley Hospital (OROFINO, ID)","identifier":"FAA-HELIPORT:ID66","authority":"FAA Air Traffic Organization"}},
{"type":"Feature","geometry":{"type":"Point","coordinates":[-113.6858,42.6213]},"properties":{"type":"HELIPORT_HOSPITAL","name":"Minidoka Meml Hospital (RUPERT, ID)","identifier":"FAA-HELIPORT:ID53","authority":"FAA Air Traffic Organization"}},
{"type":"Feature","geometry":{"type":"Point","coordinates":[-116.56778,47.3145]},"properties":{"type":"HELIPORT_HOSPITAL","name":"Benewah Community Hospital (ST MARIES, ID)","identifier":"FAA-HELIPORT:ID14","authority":"FAA Air Traffic Organization"}},
{"type":"Feature","geometry":{"type":"Point","coordinates":[-90.1597,38.89863]},"properties":{"type":"HELIPORT_HOSPITAL","name":"Alton Meml Hospital (ALTON, IL)","identifier":"FAA-HELIPORT:1IL3","authority":"FAA Air Traffic Organization"}},
{"type":"Feature","geometry":{"type":"Point","coordinates":[-87.99349,42.06776]},"properties":{"type":"HELIPORT_HOSPITAL","name":"Northwest Community Hospital (ARLINGTON HEIGHTS, IL)","identifier":"FAA-HELIPORT:7IL4","authority":"FAA Air Traffic Organization"}},
{"type":"Feature","geometry":{"type":"Point","coordinates":[-88.91862,38.00945]},"properties":{"type":"HELIPORT_HOSPITAL","name":"Franklin Hospital (BENTON, IL)","identifier":"FAA-HELIPORT:53IS","authority":"FAA Air Traffic Organization"}},
{"type":"Feature","geometry":{"type":"Point","coordinates":[-88.08632,41.68092]},"properties":{"type":"HELIPORT_HOSPITAL","name":"Adventist Bolingbrook Hospital (BOLINGBROOK, IL)","identifier":"FAA-HELIPORT:45IS","authority":"FAA Air Traffic Organization"}},
{"type":"Feature","geometry":{"type":"Point","coordinates":[-89.52409,38.62682]},"properties":{"type":"HELIPORT_HOSPITAL","name":"St Joseph's Hospital - Breese (BREESE, IL)","identifier":"FAA-HELIPORT:8IS0","authority":"FAA Air Traffic Organization"}},
{"type":"Feature","geometry":{"type":"Point","coordinates":[-89.88362,39.30029]},"properties":{"type":"HELIPORT_HOSPITAL","name":"Carlinville Area Hospital (CARLINVILLE, IL)","identifier":"FAA-HELIPORT:44LL","authority":"FAA Air Traffic Organization"}},
{"type":"Feature","geometry":{"type":"Point","coordinates":[-90.41415,39.29596]},"properties":{"type":"HELIPORT_HOSPITAL","name":"Boyd Hospital (CARROLLTON, IL)","identifier":"FAA-HELIPORT:5IS2","authority":"FAA Air Traffic Organization"}},
{"type":"Feature","geometry":{"type":"Point","coordinates":[-91.11251,40.40834]},"properties":{"type":"HELIPORT_HOSPITAL","name":"Meml Hospital (CARTHAGE, IL)","identifier":"FAA-HELIPORT:IL50","authority":"FAA Air Traffic Organization"}},
{"type":"Feature","geometry":{"type":"Point","coordinates":[-89.11945,38.53167]},"properties":{"type":"HELIPORT_HOSPITAL","name":"St Mary's Good Samaritan Hospital (CENTRALIA, IL)","identifier":"FAA-HELIPORT:98IL","authority":"FAA Air Traffic Organization"}},
{"type":"Feature","geometry":{"type":"Point","coordinates":[-89.81286,37.91726]},"properties":{"type":"HELIPORT_HOSPITAL","name":"Meml Hospital (CHESTER, IL)","identifier":"FAA-HELIPORT:4IS2","authority":"FAA Air Traffic Organization"}},
{"type":"Feature","geometry":{"type":"Point","coordinates":[-87.6826,41.90272]},"properties":{"type":"HELIPORT_HOSPITAL","name":"Saint Mary of Nazareth Hospital (CHICAGO, IL)","identifier":"FAA-HELIPORT:6IS7","authority":"FAA Air Traffic Organization"}},
{"type":"Feature","geometry":{"type":"Point","coordinates":[-87.67339,41.87476]},"properties":{"type":"HELIPORT_HOSPITAL","name":"John H Stroger Hospital of Cook County (CHICAGO, IL)","identifier":"FAA-HELIPORT:IL75","authority":"FAA Air Traffic Organization"}},
{"type":"Feature","geometry":{"type":"Point","coordinates":[-87.80599,41.55887]},"properties":{"type":"HELIPORT_PUBLIC","name":"Tinley Park Helistop (CHICAGO/TINLEY PARK, IL)","identifier":"FAA-HELIPORT:TF8","authority":"FAA Air Traffic Organization"}},
{"type":"Feature","geometry":{"type":"Point","coordinates":[-88.96148,39.86695]},"properties":{"type":"HELIPORT_HOSPITAL","name":"Decatur Meml Hospital (DECATUR, IL)","identifier":"FAA-HELIPORT:8IS6","authority":"FAA Air Traffic Organization"}},
{"type":"Feature","geometry":{"type":"Point","coordinates":[-88.93252,39.82829]},"properties":{"type":"HELIPORT_HOSPITAL","name":"St Mary's Hospital - Decatur (DECATUR, IL)","identifier":"FAA-HELIPORT:9IS3","authority":"FAA Air Traffic Organization"}},
{"type":"Feature","geometry":{"type":"Point","coordinates":[-88.55026,39.12467]},"properties":{"type":"HELIPORT_HOSPITAL","name":"St Anthony Meml Hospital (EFFINGHAM, IL)","identifier":"FAA-HELIPORT:11IS","authority":"FAA Air Traffic Organization"}},
{"type":"Feature","geometry":{"type":"Point","coordinates":[-88.37524,38.38046]},"properties":{"type":"HELIPORT_HOSPITAL","name":"Fairfield Meml Hospital (FAIRFIELD, IL)","identifier":"FAA-HELIPORT:9IL8","authority":"FAA Air Traffic Organization"}},
{"type":"Feature","geometry":{"type":"Point","coordinates":[-90.15698,41.46113]},"properties":{"type":"HELIPORT_HOSPITAL","name":"Hammond-Henry Hospital (GENESEO, IL)","identifier":"FAA-HELIPORT:3LL2","authority":"FAA Air Traffic Organization"}},
{"type":"Feature","geometry":{"type":"Point","coordinates":[-88.34473,41.88727]},"properties":{"type":"HELIPORT_HOSPITAL","name":"Northwestern Medicine Delnor Hospital (GENEVA, IL)","identifier":"FAA-HELIPORT:76IL","authority":"FAA Air Traffic Organization"}},
{"type":"Feature","geometry":{"type":"Point","coordinates":[-88.36946,40.47966]},"properties":{"type":"HELIPORT_HOSPITAL","name":"Gibson Area Hospital (GIBSON CITY, IL)","identifier":"FAA-HELIPORT:9IS8","authority":"FAA Air Traffic Organization"}},
{"type":"Feature","geometry":{"type":"Point","coordinates":[-90.0398,40.55303]},"properties":{"type":"HELIPORT_HOSPITAL","name":"Graham Hospital (CANTON, IL)","identifier":"FAA-HELIPORT:97IL","authority":"FAA Air Traffic Organization"}},
{"type":"Feature","geometry":{"type":"Point","coordinates":[-90.10951,38.56956]},"properties":{"type":"HELIPORT_HOSPITAL","name":"Touchette Rgnl Hospital (CENTREVILLE, IL)","identifier":"FAA-HELIPORT:LL59","authority":"FAA Air Traffic Organization"}},
{"type":"Feature","geometry":{"type":"Point","coordinates":[-87.62154,41.89648]},"properties":{"type":"HELIPORT_HOSPITAL","name":"Lurie Childrens Hospital (CHICAGO, IL)","identifier":"FAA-HELIPORT:75IS","authority":"FAA Air Traffic Organization"}},
{"type":"Feature","geometry":{"type":"Point","coordinates":[-88.05266,42.04779]},"properties":{"type":"HELIPORT_PUBLIC","name":"Schaumburg Muni Helistop (CHICAGO/SCHAUMBURG, IL)","identifier":"FAA-HELIPORT:4H1","authority":"FAA Air Traffic Organization"}},
{"type":"Feature","geometry":{"type":"Point","coordinates":[-88.00778,41.8189]},"properties":{"type":"HELIPORT_HOSPITAL","name":"Advocate Good Samaritan Hospital (DOWNERS GROVE, IL)","identifier":"FAA-HELIPORT:0IL4","authority":"FAA Air Traffic Organization"}},
{"type":"Feature","geometry":{"type":"Point","coordinates":[-89.23702,38.02524]},"properties":{"type":"HELIPORT_HOSPITAL","name":"Marshall Browning Hospital (DU QUOIN, IL)","identifier":"FAA-HELIPORT:14IS","authority":"FAA Air Traffic Organization"}},
{"type":"Feature","geometry":{"type":"Point","coordinates":[-88.32644,42.03656]},"properties":{"type":"HELIPORT_HOSPITAL","name":"St Joseph Hospital (ELGIN, IL)","identifier":"FAA-HELIPORT:IS20","authority":"FAA Air Traffic Organization"}},
{"type":"Feature","geometry":{"type":"Point","coordinates":[-88.32973,42.07223]},"properties":{"type":"HELIPORT_HOSPITAL","name":"Advocate Sherman Hospital (ELGIN, IL)","identifier":"FAA-HELIPORT:25LL","authority":"FAA Air Traffic Organization"}},
{"type":"Feature","geometry":{"type":"Point","coordinates":[-87.93703,41.86465]},"properties":{"type":"HELIPORT_HOSPITAL","name":"Elmhurst Meml Hospital (ELMHURST, IL)","identifier":"FAA-HELIPORT:7IL6","authority":"FAA Air Traffic Organization"}},
{"type":"Feature","geometry":{"type":"Point","coordinates":[-88.47239,38.68035]},"properties":{"type":"HELIPORT_HOSPITAL","name":"Clay County Hospital (FLORA, IL)","identifier":"FAA-HELIPORT:30IL","authority":"FAA Air Traffic Organization"}},
{"type":"Feature","geometry":{"type":"Point","coordinates":[-89.63793,42.29477]},"properties":{"type":"HELIPORT_HOSPITAL","name":"Fhn Meml Hospital (FREEPORT, IL)","identifier":"FAA-HELIPORT:50IS","authority":"FAA Air Traffic Organization"}},
{"type":"Feature","geometry":{"type":"Point","coordinates":[-87.85279,42.09353]},"properties":{"type":"HELIPORT_HOSPITAL","name":"Endeavor Health Clinical Operat Glenbrook Hospital (GLENVIEW, IL)","identifier":"FAA-HELIPORT:0IS2","authority":"FAA Air Traffic Organization"}},
{"type":"Feature","geometry":{"type":"Point","coordinates":[-88.00903,42.33768]},"properties":{"type":"HELIPORT_HOSPITAL","name":"Nw Lake Forest Hospital-Grayslake (GRAYSLAKE, IL)","identifier":"FAA-HELIPORT:LL14","authority":"FAA Air Traffic Organization"}},
{"type":"Feature","geometry":{"type":"Point","coordinates":[-89.40671,38.90334]},"properties":{"type":"HELIPORT_HOSPITAL","name":"Hshs Holy Family Hospital (GREENVILLE, IL)","identifier":"FAA-HELIPORT:59IS","authority":"FAA Air Traffic Organization"}},
{"type":"Feature","geometry":{"type":"Point","coordinates":[-89.48139,39.15167]},"properties":{"type":"HELIPORT_HOSPITAL","name":"Hillsboro Area Hospital (HILLSBORO, IL)","identifier":"FAA-HELIPORT:8IS4","authority":"FAA Air Traffic Organization"}},
{"type":"Feature","geometry":{"type":"Point","coordinates":[-87.65812,40.4579]},"properties":{"type":"HELIPORT_HOSPITAL","name":"Hoopeston Community Meml Hospital (HOOPESTON, IL)","identifier":"FAA-HELIPORT:01IL","authority":"FAA Air Traffic Organization"}},
{"type":"Feature","geometry":{"type":"Point","coordinates":[-87.87307,41.12072]},"properties":{"type":"HELIPORT_HOSPITAL","name":"St Mary's Hospital (KANKAKEE, IL)","identifier":"FAA-HELIPORT:11IL","authority":"FAA Air Traffic Organization"}},
{"type":"Feature","geometry":{"type":"Point","coordinates":[-87.69475,38.72811]},"properties":{"type":"HELIPORT_HOSPITAL","name":"Lawrence County Meml Hospital (LAWRENCEVILLE, IL)","identifier":"FAA-HELIPORT:1LL1","authority":"FAA Air Traffic Organization"}},
{"type":"Feature","geometry":{"type":"Point","coordinates":[-89.39084,40.15306]},"properties":{"type":"HELIPORT_HOSPITAL","name":"Lincoln Meml Hospital (LINCOLN, IL)","identifier":"FAA-HELIPORT:20LL","authority":"FAA Air Traffic Organization"}},
{"type":"Feature","geometry":{"type":"Point","coordinates":[-88.28034,42.31684]},"properties":{"type":"HELIPORT_HOSPITAL","name":"Northwestern Medicine Hospital McHenry (MC HENRY, IL)","identifier":"FAA-HELIPORT:5IS8","authority":"FAA Air Traffic Organization"}},
{"type":"Feature","geometry":{"type":"Point","coordinates":[-88.53997,38.08631]},"properties":{"type":"HELIPORT_HOSPITAL","name":"Hamilton Meml Hospital (MC LEANSBORO, IL)","identifier":"FAA-HELIPORT:0IL0","authority":"FAA Air Traffic Organization"}},
{"type":"Feature","geometry":{"type":"Point","coordinates":[-90.66387,40.4442]},"properties":{"type":"HELIPORT_HOSPITAL","name":"McDonough District Hospital (MACOMB, IL)","identifier":"FAA-HELIPORT:46IL","authority":"FAA Air Traffic Organization"}},
{"type":"Feature","geometry":{"type":"Point","coordinates":[-89.94809,38.73537]},"properties":{"type":"HELIPORT_HOSPITAL","name":"Anderson Hospital (MARYVILLE, IL)","identifier":"FAA-HELIPORT:8IS9","authority":"FAA Air Traffic Organization"}},
{"type":"Feature","geometry":{"type":"Point","coordinates":[-88.93574,38.31222]},"properties":{"type":"HELIPORT_HOSPITAL","name":"Deaconess Illinois Crossroad Hospital (MOUNT VERNON, IL)","identifier":"FAA-HELIPORT:75IL","authority":"FAA Air Traffic Organization"}},
{"type":"Feature","geometry":{"type":"Point","coordinates":[-89.32548,37.77353]},"properties":{"type":"HELIPORT_HOSPITAL","name":"St Joseph Meml Hospital (MURPHYSBORO, IL)","identifier":"FAA-HELIPORT:IS38","authority":"FAA Air Traffic Organization"}},
{"type":"Feature","geometry":{"type":"Point","coordinates":[-88.15356,41.76054]},"properties":{"type":"HELIPORT_HOSPITAL","name":"Edward Hospital (NAPERVILLE, IL)","identifier":"FAA-HELIPORT:LL11","authority":"FAA Air Traffic Organization"}},
{"type":"Feature","geometry":{"type":"Point","coordinates":[-89.39223,38.3389]},"properties":{"type":"HELIPORT_HOSPITAL","name":"Washington County Hospital (NASHVILLE, IL)","identifier":"FAA-HELIPORT:2LL8","authority":"FAA Air Traffic Organization"}},
{"type":"Feature","geometry":{"type":"Point","coordinates":[-88.60591,42.42657]},"properties":{"type":"HELIPORT_HOSPITAL","name":"Mercy Harvard Hospital (HARVARD, IL)","identifier":"FAA-HELIPORT:8IL4","authority":"FAA Air Traffic Organization"}},
{"type":"Feature","geometry":{"type":"Point","coordinates":[-90.05448,40.30616]},"properties":{"type":"HELIPORT_HOSPITAL","name":"Mason District Hospital (HAVANA, IL)","identifier":"FAA-HELIPORT:31IS","authority":"FAA Air Traffic Organization"}},
{"type":"Feature","geometry":{"type":"Point","coordinates":[-87.69716,41.5677]},"properties":{"type":"HELIPORT_HOSPITAL","name":"Advocate South Suburban Hospital (HAZEL CREST, IL)","identifier":"FAA-HELIPORT:8IL8","authority":"FAA Air Traffic Organization"}},
{"type":"Feature","geometry":{"type":"Point","coordinates":[-89.02603,37.80126]},"properties":{"type":"HELIPORT_HOSPITAL","name":"Herrin Hospital (HERRIN, IL)","identifier":"FAA-HELIPORT:5IL0","authority":"FAA Air Traffic Organization"}},
{"type":"Feature","geometry":{"type":"Point","coordinates":[-90.26036,39.74774]},"properties":{"type":"HELIPORT_HOSPITAL","name":"Jacksonville Memorial Hospital (JACKSONVILLE, IL)","identifier":"FAA-HELIPORT:84IS","authority":"FAA Air Traffic Organization"}},
{"type":"Feature","geometry":{"type":"Point","coordinates":[-90.3439,39.11027]},"properties":{"type":"HELIPORT_HOSPITAL","name":"Jersey Community Hospital (JERSEYVILLE, IL)","identifier":"FAA-HELIPORT:27IL","authority":"FAA Air Traffic Organization"}},
{"type":"Feature","geometry":{"type":"Point","coordinates":[-87.86442,42.25471]},"properties":{"type":"HELIPORT_HOSPITAL","name":"Northwestern Lake Forest Hospital (LAKE FOREST, IL)","identifier":"FAA-HELIPORT:45IL","authority":"FAA Air Traffic Organization"}},
{"type":"Feature","geometry":{"type":"Point","coordinates":[-89.64026,39.18136]},"properties":{"type":"HELIPORT_HOSPITAL","name":"St Francis Hospital - Litchfield (LITCHFIELD, IL)","identifier":"FAA-HELIPORT:73IL","authority":"FAA Air Traffic Organization"}},
{"type":"Feature","geometry":{"type":"Point","coordinates":[-88.42731,41.37014]},"properties":{"type":"HELIPORT_HOSPITAL","name":"Morris Hospital (MORRIS, IL)","identifier":"FAA-HELIPORT:LL04","authority":"FAA Air Traffic Organization"}},
{"type":"Feature","geometry":{"type":"Point","coordinates":[-89.95751,41.80945]},"properties":{"type":"HELIPORT_HOSPITAL","name":"Morrison Community Hospital (MORRISON, IL)","identifier":"FAA-HELIPORT:5LL9","authority":"FAA Air Traffic Organization"}},
{"type":"Feature","geometry":{"type":"Point","coordinates":[-87.76991,38.42132]},"properties":{"type":"HELIPORT_HOSPITAL","name":"Wabash General Hospital (MOUNT CARMEL, IL)","identifier":"FAA-HELIPORT:67IS","authority":"FAA Air Traffic Organization"}},
{"type":"Feature","geometry":{"type":"Point","coordinates":[-87.98195,41.54556]},"properties":{"type":"HELIPORT_HOSPITAL","name":"Silver Cross Hospital (NEW LENOX, IL)","identifier":"FAA-HELIPORT:9IL9","authority":"FAA Air Traffic Organization"}},
{"type":"Feature","geometry":{"type":"Point","coordinates":[-88.07704,38.73587]},"properties":{"type":"HELIPORT_HOSPITAL","name":"Richland Meml Hospital (OLNEY, IL)","identifier":"FAA-HELIPORT:8LL4","authority":"FAA Air Traffic Organization"}},
{"type":"Feature","geometry":{"type":"Point","coordinates":[-87.84783,42.03821]},"properties":{"type":"HELIPORT_HOSPITAL","name":"Advocate Lutheran General Hospital (PARK RIDGE, IL)","identifier":"FAA-HELIPORT:71IL","authority":"FAA Air Traffic Organization"}},
{"type":"Feature","geometry":{"type":"Point","coordinates":[-90.81418,39.60709]},"properties":{"type":"HELIPORT_HOSPITAL","name":"Illini Community Hospital (PITTSFIELD, IL)","identifier":"FAA-HELIPORT:IS44","authority":"FAA Air Traffic Organization"}},
{"type":"Feature","geometry":{"type":"Point","coordinates":[-89.99687,38.20967]},"properties":{"type":"HELIPORT_HOSPITAL","name":"Red Bud Rgnl Hospital (RED BUD, IL)","identifier":"FAA-HELIPORT:78IS","authority":"FAA Air Traffic Organization"}},
{"type":"Feature","geometry":{"type":"Point","coordinates":[-87.75062,39.01558]},"properties":{"type":"HELIPORT_HOSPITAL","name":"Crawford Meml Hospital (ROBINSON, IL)","identifier":"FAA-HELIPORT:35LL","authority":"FAA Air Traffic Organization"}},
{"type":"Feature","geometry":{"type":"Point","coordinates":[-89.06367,41.92823]},"properties":{"type":"HELIPORT_HOSPITAL","name":"Rochelle Community Hospital (ROCHELLE, IL)","identifier":"FAA-HELIPORT:IL41","authority":"FAA Air Traffic Organization"}},
{"type":"Feature","geometry":{"type":"Point","coordinates":[-88.94889,38.64251]},"properties":{"type":"HELIPORT_HOSPITAL","name":"Salem Township Hospital (SALEM, IL)","identifier":"FAA-HELIPORT:5IL9","authority":"FAA Air Traffic Organization"}},
{"type":"Feature","geometry":{"type":"Point","coordinates":[-88.21473,40.11779]},"properties":{"type":"HELIPORT_HOSPITAL","name":"Carle Hospital (URBANA, IL)","identifier":"FAA-HELIPORT:IS96","authority":"FAA Air Traffic Organization"}},
{"type":"Feature","geometry":{"type":"Point","coordinates":[-89.09929,38.97034]},"properties":{"type":"HELIPORT_HOSPITAL","name":"Sbl Fayette County Hospital (VANDALIA, IL)","identifier":"FAA-HELIPORT:IL26","authority":"FAA Air Traffic Organization"}},
{"type":"Feature","geometry":{"type":"Point","coordinates":[-87.81256,41.66917]},"properties":{"type":"HELIPORT_HOSPITAL","name":"Palos Community Hospital (PALOS HEIGHTS, IL)","identifier":"FAA-HELIPORT:20IL","authority":"FAA Air Traffic Organization"}},
{"type":"Feature","geometry":{"type":"Point","coordinates":[-89.08445,39.37889]},"properties":{"type":"HELIPORT_HOSPITAL","name":"Pana Community Hospital (PANA, IL)","identifier":"FAA-HELIPORT:LL29","authority":"FAA Air Traffic Organization"}},
{"type":"Feature","geometry":{"type":"Point","coordinates":[-88.68073,40.871]},"properties":{"type":"HELIPORT_HOSPITAL","name":"St James Hospital (PONTIAC, IL)","identifier":"FAA-HELIPORT:LL42","authority":"FAA Air Traffic Organization"}},
{"type":"Feature","geometry":{"type":"Point","coordinates":[-91.39864,39.93603]},"properties":{"type":"HELIPORT_HOSPITAL","name":"Blessing Hospital (QUINCY, IL)","identifier":"FAA-HELIPORT:0IS8","authority":"FAA Air Traffic Organization"}},
{"type":"Feature","geometry":{"type":"Point","coordinates":[-89.09974,42.29909]},